time,lat,lon,alt_ft,airspeed_kt,heading_deg,pitch_deg,roll_deg,vsi_fps,pred,p_prob,choice_kind,choice_id,choice_heading,choice_alt,choice_score,cmds
2025-10-24 23:12:14,39.777627,-104.678108,-0.3,6.9,241.6,-26.24,-179.12,0.00,EngineFailure,0.48,,,,,,
2025-10-24 23:12:20,39.777627,-104.678108,-0.3,6.9,241.6,-26.23,-179.13,-0.00,EngineFailure,0.48,,,,,,
2025-10-24 23:12:24,39.777627,-104.678108,-0.3,6.9,241.6,-26.23,-179.15,0.00,EngineFailure,0.48,,,,,,
2025-10-24 23:12:30,39.777627,-104.678108,-0.3,6.9,241.7,-26.23,-179.16,0.00,EngineFailure,0.48,,,,,,
2025-10-24 23:12:34,39.777627,-104.678108,-0.3,6.9,241.7,-26.23,-179.17,-0.00,EngineFailure,0.48,,,,,,
2025-10-24 23:12:38,39.777627,-104.678108,-0.3,6.9,241.7,-26.23,-179.19,0.00,EngineFailure,0.48,,,,,,
2025-10-24 23:12:43,39.777627,-104.678108,-0.3,6.9,241.8,-26.23,-179.20,0.00,EngineFailure,0.48,,,,,,
2025-10-24 23:12:47,39.777627,-104.678108,-0.3,6.9,241.8,-26.22,-179.21,0.00,EngineFailure,0.48,,,,,,
2025-10-24 23:12:51,39.777627,-104.678108,-0.3,6.9,241.8,-26.22,-179.23,-0.00,EngineFailure,0.48,,,,,,
2025-10-24 23:12:56,39.777627,-104.678108,-0.3,6.9,241.9,-26.22,-179.24,-0.00,EngineFailure,0.48,,,,,,
2025-10-24 23:13:00,39.777627,-104.678108,-0.3,6.9,241.9,-26.23,-179.25,-0.00,EngineFailure,0.48,,,,,,
2025-10-24 23:13:04,39.777627,-104.678108,-0.3,6.9,241.9,-26.23,-179.27,0.00,EngineFailure,0.48,,,,,,
2025-10-24 23:13:08,39.777627,-104.678108,-0.3,6.9,242.0,-26.23,-179.28,0.00,EngineFailure,0.48,,,,,,
2025-10-24 23:13:12,39.777627,-104.678108,-0.3,6.9,242.0,-26.24,-179.30,0.00,EngineFailure,0.48,,,,,,
2025-10-24 23:13:17,39.777627,-104.678108,-0.3,6.9,242.0,-26.27,0.00,-179.32,FuelLeak,0.55,vision,north_field,,,40.900000000000006,hdg=0.0;alt=200.0;thr=0.0
2025-10-24 23:13:47,0.014274,0.000000,1.0,200.0,1.0,0.00,39.77,-104.60,FuelLeak,0.72,vision,east_field,,,15.900000000000006,hdg=90.0;alt=200.0;thr=0.0
2025-10-24 23:13:57,-1.215209,7.183053,241.8,-25.6,-178.2,-1.19,90.00,1.00,FuelLeak,0.76,vision,east_field,,,15.900000000000006,hdg=90.0;alt=200.0;thr=0.0
2025-10-24 23:14:06,200.000000,1.000000,0.0,39.8,-104.6,-1.32,6.90,242.35,FuelLeak,0.69,vision,west_field,,,40.900000000000006,hdg=90.0;alt=200.0;thr=0.0
2025-10-24 23:14:14,-26.338099,-179.216956,5.9,90.0,1.0,200.00,1.00,0.00,FuelLeak,0.73,vision,west_field,,,15.900000000000006,hdg=270.0;alt=200.0;thr=0.0
2025-10-24 23:14:25,39.774439,-104.600658,-1.3,6.9,242.4,-26.34,-179.19,1.31,EngineFailure,0.48,,,,,,
2025-10-24 23:14:26,89.993160,1.000000,200.0,1.0,0.0,39.77,-104.60,-1.31,EngineFailure,0.71,vision,nearby_field,,,40.900000000000006,hdg=360.0;alt=200.0;thr=0.0
2025-10-24 23:14:36,6.901731,242.427821,-26.3,-179.2,8.4,269.99,1.00,200.00,FuelLeak,0.78,vision,north_field,,,40.900000000000006,hdg=0.0;alt=200.0;thr=0.0
2025-10-24 23:14:46,1.000000,0.000000,39.8,-104.6,-1.3,6.90,242.47,-26.35,FuelLeak,0.78,vision,east_field,,,15.900000000000006,hdg=90.0;alt=200.0;thr=0.0
2025-10-24 23:14:57,-179.137872,0.000802,39.8,-104.6,-1.3,6.90,242.48,-26.35,FuelLeak,0.78,vision,west_field,,,40.900000000000006,hdg=90.0;alt=200.0;thr=0.0
2025-10-24 23:15:06,-179.135232,-9.602768,360.0,1.0,200.0,1.00,0.00,39.77,FuelLeak,0.60,vision,west_field,,,40.900000000000006,hdg=90.0;alt=200.0;thr=0.0
2025-10-24 23:15:15,-104.600658,-1.302472,6.9,242.5,-26.4,-179.10,0.00,0.00,FuelLeak,0.60,vision,west_field,,,40.900000000000006,hdg=90.0;alt=200.0;thr=0.0
2025-10-24 23:15:27,1.000000,200.000000,1.0,0.0,39.8,-104.60,-1.30,6.90,FuelLeak,0.59,vision,west_field,,,40.900000000000006,hdg=270.0;alt=200.0;thr=0.0
2025-10-24 23:15:39,242.559970,-26.349496,-179.1,-7.0,90.0,1.00,200.00,1.00,FuelLeak,0.77,vision,west_field,,,40.900000000000006,hdg=90.0;alt=200.0;thr=0.0
2025-10-24 23:15:49,0.000000,39.774439,-104.6,-1.3,6.9,242.60,-26.35,-179.04,FuelLeak,0.67,vision,east_field,,,15.900000000000006,hdg=90.0;alt=200.0;thr=0.0
2025-10-24 23:15:58,-0.000111,89.999699,1.0,200.0,1.0,0.00,39.77,-104.60,FuelLeak,0.72,vision,north_field,,,15.900000000000006,hdg=0.0;alt=200.0;thr=0.0
2025-10-24 23:16:08,-1.292996,6.900790,242.6,-26.3,-179.0,0.00,90.00,1.00,FuelLeak,0.76,vision,east_field,,,15.900000000000006,hdg=90.0;alt=200.0;thr=0.0
2025-10-24 23:16:19,200.000000,1.000000,0.0,39.8,-104.6,-1.29,6.90,242.68,FuelLeak,0.69,vision,west_field,,,40.900000000000006,hdg=90.0;alt=200.0;thr=0.0
2025-10-24 23:16:28,-26.337071,-178.971598,0.0,90.0,1.0,200.00,1.00,0.00,FuelLeak,0.73,vision,west_field,,,15.900000000000006,hdg=270.0;alt=200.0;thr=0.0
2025-10-24 23:16:39,39.774439,-104.600658,-1.3,6.9,242.7,-26.33,-178.93,-0.00,EngineFailure,0.48,,,,,,
2025-10-24 23:16:40,270.000349,1.000000,200.0,1.0,0.0,39.77,-104.60,-1.29,EngineFailure,0.71,vision,north_field,,,40.900000000000006,hdg=0.0;alt=200.0;thr=0.0
2025-10-24 23:16:50,6.901869,242.772330,-26.3,-178.9,-0.0,89.98,1.00,200.00,FuelLeak,0.78,vision,north_field,,,40.900000000000006,hdg=0.0;alt=200.0;thr=0.0
2025-10-24 23:17:00,1.000000,0.000000,39.8,-104.6,-1.3,6.90,242.81,-26.31,FuelLeak,0.78,vision,east_field,,,15.900000000000006,hdg=90.0;alt=200.0;thr=0.0
2025-10-24 23:17:13,-178.843430,-0.000303,90.0,1.0,200.0,1.00,0.00,39.77,FuelLeak,0.60,vision,west_field,,,40.900000000000006,hdg=90.0;alt=200.0;thr=0.0
2025-10-24 23:17:24,-104.600658,-1.283839,6.9,242.8,-26.3,-178.80,0.00,0.00,FuelLeak,0.60,vision,west_field,,,40.900000000000006,hdg=90.0;alt=200.0;thr=0.0
2025-10-24 23:17:33,1.000000,200.000000,1.0,0.0,39.8,-104.60,-1.28,6.90,FuelLeak,0.59,vision,west_field,,,40.900000000000006,hdg=270.0;alt=200.0;thr=0.0
2025-10-24 23:17:44,242.874880,-26.288403,-178.8,-0.0,90.0,1.00,200.00,1.00,FuelLeak,0.77,vision,west_field,,,40.900000000000006,hdg=90.0;alt=200.0;thr=0.0
2025-10-24 23:17:54,0.000000,39.774439,-104.6,-1.3,6.9,242.91,-26.28,-178.71,FuelLeak,0.67,vision,east_field,,,15.900000000000006,hdg=90.0;alt=200.0;thr=0.0
2025-10-24 23:18:06,0.000419,89.993160,1.0,200.0,1.0,0.00,39.77,-104.60,FuelLeak,0.72,vision,north_field,,,15.900000000000006,hdg=0.0;alt=200.0;thr=0.0
2025-10-24 23:18:15,-1.282820,6.900798,242.9,-26.3,-178.7,0.00,269.99,1.00,FuelLeak,0.76,vision,east_field,,,15.900000000000006,hdg=90.0;alt=200.0;thr=0.0
2025-10-24 23:18:24,200.000000,1.000000,0.0,39.8,-104.6,-1.28,6.90,242.97,FuelLeak,0.69,vision,west_field,,,40.900000000000006,hdg=90.0;alt=200.0;thr=0.0
2025-10-24 23:18:34,-26.255276,-178.592041,-0.0,39.8,-104.6,-1.28,6.90,242.97,FuelLeak,0.69,vision,west_field,,,15.900000000000006,hdg=270.0;alt=200.0;thr=0.0
2025-10-24 23:18:42,-26.254248,-178.585099,0.0,0.0,1.0,200.00,1.00,0.00,FuelLeak,0.72,vision,west_field,,,15.900000000000006,hdg=270.0;alt=200.0;thr=0.0
2025-10-24 23:18:51,39.774439,-104.600658,-1.3,6.9,243.0,-26.24,-178.53,-0.00,EngineFailure,0.48,,,,,,
2025-10-24 23:18:52,0.000000,1.000000,200.0,1.0,0.0,39.77,-104.60,-1.28,EngineFailure,0.71,vision,east_field,,,15.900000000000006,hdg=90.0;alt=200.0;thr=0.0
2025-10-24 23:19:04,6.901897,243.027389,-26.2,-178.5,-0.0,90.00,1.00,200.00,FuelLeak,0.78,vision,north_field,,,40.900000000000006,hdg=0.0;alt=200.0;thr=0.0
2025-10-24 23:19:15,1.000000,0.000000,39.8,-104.6,-1.3,6.90,243.06,-26.22,FuelLeak,0.78,vision,east_field,,,15.900000000000006,hdg=90.0;alt=200.0;thr=0.0
2025-10-24 23:19:23,-178.395458,0.000320,90.0,1.0,200.0,1.00,0.00,39.77,FuelLeak,0.60,vision,west_field,,,40.900000000000006,hdg=90.0;alt=200.0;thr=0.0
2025-10-24 23:19:31,-104.600658,-1.285462,6.9,243.1,-26.2,-178.33,0.00,89.98,FuelLeak,0.60,vision,west_field,,,40.900000000000006,hdg=90.0;alt=200.0;thr=0.0
2025-10-24 23:19:40,1.000000,200.000000,1.0,0.0,39.8,-104.60,-1.29,6.90,FuelLeak,0.59,vision,west_field,,,40.900000000000006,hdg=270.0;alt=200.0;thr=0.0
2025-10-24 23:19:48,243.122583,-26.207981,-178.3,-0.0,270.0,1.00,200.00,1.00,FuelLeak,0.66,vision,west_field,,,40.900000000000006,hdg=90.0;alt=200.0;thr=0.0
2025-10-24 23:19:56,0.000000,39.774439,-104.6,-1.3,6.9,243.16,-26.20,-178.24,FuelLeak,0.67,vision,east_field,,,15.900000000000006,hdg=90.0;alt=200.0;thr=0.0
2025-10-24 23:20:09,-0.000411,89.982200,1.0,200.0,1.0,0.00,39.77,-104.60,FuelLeak,0.72,vision,north_field,,,15.900000000000006,hdg=0.0;alt=200.0;thr=0.0
2025-10-24 23:20:19,-1.285994,6.900757,243.2,-26.2,-178.2,0.00,90.00,1.00,FuelLeak,0.76,vision,east_field,,,15.900000000000006,hdg=90.0;alt=200.0;thr=0.0
2025-10-24 23:20:27,200.000000,1.000000,0.0,39.8,-104.6,-1.29,6.90,243.24,FuelLeak,0.69,vision,west_field,,,40.900000000000006,hdg=90.0;alt=200.0;thr=0.0
2025-10-24 23:20:35,-26.194555,-178.166740,0.0,0.0,1.0,200.00,1.00,0.00,FuelLeak,0.72,vision,west_field,,,15.900000000000006,hdg=270.0;alt=200.0;thr=0.0
2025-10-24 23:20:43,39.774439,-104.600658,-1.3,6.9,243.3,-26.19,-178.15,-0.00,EngineFailure,0.48,,,,,,
2025-10-24 23:20:44,90.000448,1.000000,200.0,1.0,0.0,39.77,-104.60,-1.28,EngineFailure,0.71,vision,west_field,,,40.900000000000006,hdg=90.0;alt=200.0;thr=0.0
2025-10-24 23:20:56,6.901783,243.317698,-26.2,-178.1,-0.0,89.99,1.00,200.00,FuelLeak,0.78,vision,north_field,,,40.900000000000006,hdg=0.0;alt=200.0;thr=0.0
2025-10-24 23:21:10,1.000000,0.000000,39.8,-104.6,-1.3,6.90,243.36,-26.20,FuelLeak,0.78,vision,east_field,,,15.900000000000006,hdg=90.0;alt=200.0;thr=0.0
2025-10-24 23:21:21,-178.121204,-0.000113,270.0,1.0,200.0,1.00,0.00,39.77,FuelLeak,0.60,vision,west_field,,,40.900000000000006,hdg=90.0;alt=200.0;thr=0.0
2025-10-24 23:21:31,-104.600658,-1.278076,6.9,243.4,-26.2,-178.12,0.00,269.99,FuelLeak,0.60,vision,west_field,,,40.900000000000006,hdg=90.0;alt=200.0;thr=0.0
2025-10-24 23:21:40,1.000000,200.000000,1.0,0.0,39.8,-104.60,-1.27,6.90,FuelLeak,0.59,vision,west_field,,,40.900000000000006,hdg=270.0;alt=200.0;thr=0.0
2025-10-24 23:21:48,243.451231,-26.230702,-178.1,0.0,39.8,-104.60,-1.27,6.90,FuelLeak,0.66,vision,west_field,,,40.900000000000006,hdg=90.0;alt=200.0;thr=0.0
2025-10-24 23:21:58,243.456800,-26.233242,-178.1,0.0,90.0,1.00,200.00,1.00,FuelLeak,0.77,vision,west_field,,,40.900000000000006,hdg=90.0;alt=200.0;thr=0.0
2025-10-24 23:22:07,0.000000,39.774438,-104.6,-1.3,6.9,243.52,-26.29,-178.13,FuelLeak,0.67,vision,east_field,,,15.900000000000006,hdg=90.0;alt=200.0;thr=0.0
2025-10-24 23:22:15,0.001726,0.000000,1.0,200.0,1.0,0.00,39.77,-104.60,FuelLeak,0.72,vision,east_field,,,15.900000000000006,hdg=90.0;alt=200.0;thr=0.0
2025-10-24 23:22:25,-1.243062,6.901758,243.6,-26.4,-178.2,0.00,90.00,1.00,FuelLeak,0.76,vision,east_field,,,15.900000000000006,hdg=90.0;alt=200.0;thr=0.0
2025-10-24 23:22:35,200.000000,1.000000,0.0,39.8,-104.6,-1.23,6.90,243.65,FuelLeak,0.69,vision,west_field,,,40.900000000000006,hdg=90.0;alt=200.0;thr=0.0
2025-10-24 23:22:45,-26.438766,-178.180327,0.0,90.0,1.0,200.00,1.00,0.00,FuelLeak,0.73,vision,west_field,,,15.900000000000006,hdg=270.0;alt=200.0;thr=0.0
2025-10-24 23:22:55,39.774438,-104.600658,-1.2,6.9,243.7,-26.46,-178.19,0.00,EngineFailure,0.48,,,,,,
2025-10-24 23:22:56,89.980646,1.000000,200.0,1.0,0.0,39.77,-104.60,-1.23,EngineFailure,0.71,vision,nearby_field,,,40.900000000000006,hdg=360.0;alt=200.0;thr=0.0
2025-10-24 23:23:14,6.900910,243.744158,-26.5,-178.2,0.0,270.00,1.00,200.00,FuelLeak,0.78,vision,north_field,,,40.900000000000006,hdg=0.0;alt=200.0;thr=0.0
2025-10-24 23:23:24,1.000000,0.000000,39.8,-104.6,-1.2,6.90,243.79,-26.48,FuelLeak,0.78,vision,east_field,,,15.900000000000006,hdg=90.0;alt=200.0;thr=0.0
2025-10-24 23:23:33,-178.219685,-7.935682,90.0,1.0,200.0,1.00,0.00,39.77,FuelLeak,0.60,vision,west_field,,,40.900000000000006,hdg=90.0;alt=200.0;thr=0.0
2025-10-24 23:23:44,-104.600658,-1.220720,6.9,243.8,-26.5,-178.23,0.00,90.00,FuelLeak,0.60,vision,west_field,,,40.900000000000006,hdg=90.0;alt=200.0;thr=0.0
2025-10-24 23:23:53,1.000000,200.000000,1.0,0.0,39.8,-104.60,-1.22,6.90,FuelLeak,0.59,vision,west_field,,,40.900000000000006,hdg=270.0;alt=200.0;thr=0.0
2025-10-24 23:24:02,243.922032,-26.484025,-178.3,-0.0,0.0,1.00,200.00,1.00,FuelLeak,0.76,vision,west_field,,,40.900000000000006,hdg=90.0;alt=200.0;thr=0.0
2025-10-24 23:24:13,0.000000,39.774438,-104.6,-1.2,6.9,243.99,-26.48,-178.29,FuelLeak,0.67,vision,east_field,,,15.900000000000006,hdg=90.0;alt=200.0;thr=0.0
2025-10-24 23:24:22,0.000529,90.000449,1.0,200.0,1.0,0.00,39.77,-104.60,FuelLeak,0.72,vision,north_field,,,15.900000000000006,hdg=0.0;alt=200.0;thr=0.0
2025-10-24 23:24:34,-1.215160,6.902033,244.0,-26.5,-178.3,-0.00,89.99,1.00,FuelLeak,0.76,vision,east_field,,,15.900000000000006,hdg=90.0;alt=200.0;thr=0.0
2025-10-24 23:24:43,200.000000,1.000000,0.0,39.8,-104.6,-1.21,6.90,244.09,FuelLeak,0.69,vision,west_field,,,40.900000000000006,hdg=90.0;alt=200.0;thr=0.0
2025-10-24 23:24:56,-26.473751,-178.331095,-0.0,270.0,1.0,200.00,1.00,0.00,FuelLeak,0.73,vision,west_field,,,15.900000000000006,hdg=270.0;alt=200.0;thr=0.0
2025-10-24 23:25:07,39.774438,-104.600658,-1.2,6.9,244.1,-26.47,-178.36,-0.00,EngineFailure,0.48,,,,,,
2025-10-24 23:25:08,39.774438,-104.600658,-1.2,6.9,244.2,-26.47,-178.36,0.00,EngineFailure,0.48,,,,,,
2025-10-24 23:25:10,90.020000,1.000000,200.0,1.0,0.0,39.77,-104.60,-1.21,EngineFailure,0.71,vision,west_field,,,40.900000000000006,hdg=90.0;alt=200.0;thr=0.0
2025-10-24 23:25:20,6.902070,244.229178,-26.5,-178.4,-0.0,0.00,1.00,200.00,FuelLeak,0.78,vision,north_field,,,40.900000000000006,hdg=0.0;alt=200.0;thr=0.0
2025-10-24 23:25:31,1.000000,0.000000,39.8,-104.6,-1.2,6.90,244.32,-26.45,FuelLeak,0.78,vision,east_field,,,15.900000000000006,hdg=90.0;alt=200.0;thr=0.0
2025-10-24 23:25:41,-178.450126,-0.000313,90.0,1.0,200.0,1.00,0.00,39.77,FuelLeak,0.60,vision,west_field,,,40.900000000000006,hdg=90.0;alt=200.0;thr=0.0
2025-10-24 23:25:57,-104.600658,-1.210685,6.9,244.4,-26.4,-178.49,0.00,90.00,FuelLeak,0.60,vision,west_field,,,40.900000000000006,hdg=90.0;alt=200.0;thr=0.0
2025-10-24 23:26:08,1.000000,200.000000,1.0,0.0,39.8,-104.60,-1.21,6.90,FuelLeak,0.59,vision,west_field,,,40.900000000000006,hdg=270.0;alt=200.0;thr=0.0
2025-10-24 23:26:18,244.473310,-26.427936,-178.5,-0.0,90.0,1.00,200.00,1.00,FuelLeak,0.77,vision,west_field,,,40.900000000000006,hdg=90.0;alt=200.0;thr=0.0
2025-10-24 23:26:29,0.000000,39.774438,-104.6,-1.2,6.9,244.54,-26.42,-178.57,FuelLeak,0.67,vision,east_field,,,15.900000000000006,hdg=90.0;alt=200.0;thr=0.0
2025-10-24 23:26:39,0.000422,270.000349,1.0,200.0,1.0,0.00,39.77,-104.60,FuelLeak,0.72,vision,nearby_field,,,40.900000000000006,hdg=45.0;alt=200.0;thr=0.0
2025-10-24 23:26:49,-1.209548,6.902087,244.6,-26.4,-178.6,-0.00,89.98,1.00,FuelLeak,0.76,vision,east_field,,,15.900000000000006,hdg=90.0;alt=200.0;thr=0.0
