time,lat,lon,alt_ft,airspeed_kt,heading_deg,pitch_deg,roll_deg,vsi_fps,pred,f_prob,target_icao,cmd_heading,cmd_alt,cmd_throttle
2025-10-06_22:28:18,39.83492249317761,-104.7194297032059,-1.552804840698491,5.980748040487753,127.3365812531884,-26.24035721095981,-179.1522022567937,4.04455596094725,EngineFailure,1.0,,,,0.0
2025-10-06_22:28:22,39.83492249317759,-104.7194297032059,-1.55280483837208,5.980748548138518,127.3365812360809,-26.24035721699447,-179.1522022256714,-7.10969959606033,EngineFailure,1.0,,,,0.0
2025-10-06_22:28:26,39.83492249317754,-104.7194297032059,-1.55280483837208,5.980748505577079,127.3365812070426,-26.24035715405406,-179.1522021562196,1.499345201337166,EngineFailure,1.0,,,,0.0
2025-10-06_22:28:31,39.83492249317748,-104.719429703206,-1.55280483837208,5.980748291064175,127.3365811810619,-26.24035725806865,-179.1522021222685,4.226390109916239,EngineFailure,1.0,,,,0.0
2025-10-06_22:28:35,39.83492249317744,-104.7194297032059,-1.552804836045669,5.980748296749864,127.3365811841065,-26.2403571623885,-179.1522021177211,4.246648300915397,EngineFailure,1.0,,,,0.0
2025-10-06_22:28:39,39.83492249317743,-104.7194297032059,-1.55280483837208,5.980748357505507,127.3365811794763,-26.24035721212627,-179.1522021006971,1.89161441953761,EngineFailure,1.0,,,,0.0
2025-10-06_22:28:43,39.83492249317737,-104.719429703206,-1.55280483837208,5.980748316690386,127.3365811584831,-26.24035724871682,-179.1522020575293,4.454466391895488,EngineFailure,1.0,,,,0.0
2025-10-06_22:28:47,39.83492249317734,-104.719429703206,-1.55280483837208,5.980748176335101,127.3365811542671,-26.24035717468129,-179.1522020532004,2.031486549687248,EngineFailure,1.0,,,,0.0
2025-10-06_22:28:51,39.83492249317739,-104.719429703206,-1.552804836045669,5.980748416230547,127.3365811570747,-26.24035726306828,-179.1522020356551,1.519264608620966,EngineFailure,1.0,,,,0.0
2025-10-06_22:28:55,39.83492249317734,-104.719429703206,-1.552804836045669,5.980748408676704,127.3365811130922,-26.24035719258898,-179.1522019303746,2.395571266645031,EngineFailure,1.0,,,,0.0
2025-10-06_22:28:59,39.83492249317717,-104.7194297032061,-1.552804831392847,5.980748331798074,127.3365810594926,-26.24035722967061,-179.1522018243078,-7.095600801840127,EngineFailure,1.0,,,,0.0
2025-10-06_22:29:04,39.83492249317714,-104.7194297032061,-1.552804824413614,5.980748130930817,127.3365810371181,-26.24035720212479,-179.1522017800688,-2.138886537818,EngineFailure,1.0,,,,0.0
2025-10-06_22:29:08,39.83492249317717,-104.7194297032061,-1.552804824413615,5.980747876983586,127.3365810228182,-26.24035725323618,-179.1522017543923,4.966108632843191,EngineFailure,1.0,,,,0.0
2025-10-06_22:29:12,39.83492249317712,-104.7194297032061,-1.552804840698491,5.980748120493517,127.3365810045867,-26.24035712487765,-179.1522016991088,4.514042514101227,EngineFailure,1.0,,,,0.0
2025-10-06_22:29:16,39.8349224931771,-104.7194297032061,-1.552804833719258,5.980747936195975,127.3365809884133,-26.24035718927956,-179.1522016708636,4.249772777353853,EngineFailure,1.0,,,,0.0
2025-10-06_22:29:20,39.83492249317705,-104.7194297032061,-1.552804824413615,5.980748378095821,127.336580968052,-26.24035721104256,-179.1522016247619,-6.651318627783893,EngineFailure,1.0,,,,0.0
2025-10-06_22:29:25,39.83492249317705,-104.7194297032061,-1.552804826740025,5.98074785878938,127.3365809407641,-26.24035726654257,-179.1522015787704,5.338787561478229,EngineFailure,1.0,,,,0.0
2025-10-06_22:29:29,39.83492249317698,-104.7194297032061,-1.552804833719258,5.980748394746768,127.3365809186207,-26.24035724195044,-179.1522015134575,2.35164354455311,EngineFailure,1.0,,,,0.0
2025-10-06_22:29:33,39.83492249317695,-104.7194297032061,-1.552804826740026,5.980748126544714,127.3365809024848,-26.24035718325641,-179.1522014697399,4.803014090522733,EngineFailure,1.0,,,,0.0
2025-10-06_22:29:37,39.83492249317693,-104.7194297032061,-1.552804836045669,5.980748794653714,127.3365808897432,-26.2403572058889,-179.1522014592966,2.43185254904904,EngineFailure,1.0,,,,0.0
2025-10-06_22:29:42,39.8349224931769,-104.7194297032061,-1.552804831392848,5.980748433287612,127.3365808846084,-26.24035726491906,-179.1522014364076,1.998644361232006,EngineFailure,1.0,,,,0.0
2025-10-06_22:29:47,39.83492249317689,-104.7194297032061,-1.552804829066436,5.98074808333348,127.3365808729027,-26.2403571517481,-179.1522014140699,1.137654647703882,EngineFailure,1.0,,,,0.0
2025-10-06_22:29:51,39.83492249317687,-104.719429703206,-1.552804836045669,5.980748077810238,127.3365808765109,-26.24035707166399,-179.152201427482,-4.342122605535947,EngineFailure,1.0,,,,0.0
2025-10-06_22:29:55,39.8349224931769,-104.7194297032061,-1.552804833719258,5.980748073667809,127.3365808797977,-26.240357148834,-179.1522014286613,1.720107924461055,EngineFailure,1.0,,,,0.0
2025-10-06_22:29:59,39.83492249317693,-104.7194297032061,-1.552804824413615,5.980748170080845,127.3365808771751,-26.24035716666409,-179.152201426878,3.883018485718011,EngineFailure,1.0,,,,0.0
2025-10-06_22:30:03,39.83492249317692,-104.7194297032061,-1.552804829066436,5.980748492987341,127.3365808600679,-26.24035708649781,-179.1522013890228,2.649150352440988,EngineFailure,1.0,,,,0.0
2025-10-06_22:30:07,39.83492249317688,-104.7194297032061,-1.552804843024902,5.98074850244995,127.3365808595101,-26.24035712678708,-179.1522013779662,-5.03155218983573,EngineFailure,1.0,,,,0.0
2025-10-06_22:30:12,39.83492249317681,-104.7194297032061,-1.552804829066436,5.980748374156452,127.3365808408436,-26.24035719683753,-179.1522013365357,1.067596796199011,EngineFailure,1.0,,,,0.0
2025-10-06_22:30:16,39.8349224931767,-104.7194297032061,-1.552804831392848,5.980747944034102,127.3365808200232,-26.24035719816846,-179.1522013066975,3.249586852903663,EngineFailure,1.0,,,,0.0
2025-10-06_22:30:20,39.83492249317668,-104.7194297032061,-1.552804829066436,5.980748220114904,127.3365808139075,-26.24035719079781,-179.1522012788907,1.247189821744128,EngineFailure,1.0,,,,0.0
2025-10-06_22:30:24,39.83492249317668,-104.7194297032061,-1.552804843024902,5.980747997398354,127.3365808038427,-26.24035706584713,-179.1522012595006,2.983956602191733,EngineFailure,1.0,,,,0.0
2025-10-06_22:30:28,39.83492249317666,-104.7194297032061,-1.552804824413615,5.980748154526425,127.336580798646,-26.24035723123556,-179.1522012554144,1.367968582256408,EngineFailure,1.0,,,,0.0
2025-10-06_22:30:33,39.83492249317662,-104.7194297032061,-1.552804824413614,5.980747982493726,127.3365808001889,-26.2403572033576,-179.1522012520341,6.263906538249375,EngineFailure,1.0,,,,0.0
2025-10-06_22:30:37,39.83492249317659,-104.7194297032061,-1.552804824413614,5.980748214997785,127.3365807893097,-26.24035720948827,-179.1522012325273,1.065891202252132,EngineFailure,1.0,,,,0.0
2025-10-06_22:30:41,39.83492249317663,-104.7194297032061,-1.552804817434382,5.980748535670615,127.3365807838883,-26.24035709534298,-179.1522012199176,3.050731766709747,EngineFailure,1.0,,,,0.0
2025-10-06_22:30:45,39.83492249317657,-104.7194297032061,-1.552804824413614,5.980748185269755,127.3365807784785,-26.24035715155712,-179.1522012057059,-5.386035550411822,EngineFailure,1.0,,,,0.0
2025-10-06_22:30:49,39.8349224931766,-104.7194297032061,-1.55280483837208,5.98074835283512,127.3365807736815,-26.24035712424959,-179.1522011933558,9.803391474342869,EngineFailure,1.0,,,,0.0
2025-10-06_22:30:54,39.8349224931766,-104.7194297032062,-1.552804817434382,5.980747862160182,127.3365807681131,-26.24035719781162,-179.1522011857814,-3.200578549612728,EngineFailure,1.0,,,,0.0
2025-10-06_22:30:58,39.83492249317651,-104.7194297032061,-1.552804824413615,5.980748322010566,127.3365807758051,-26.2403572592295,-179.1522011958284,-5.900856319224322,EngineFailure,1.0,,,,0.0
2025-10-06_22:31:02,39.83492249317658,-104.7194297032062,-1.552804824413615,5.980748361972834,127.3365807801898,-26.24035711935408,-179.1522012017922,-1.25781815643766,EngineFailure,1.0,,,,0.0
2025-10-06_22:31:07,39.83492249317657,-104.7194297032062,-1.552804824413615,5.980748346986983,127.3365807854724,-26.24035725557672,-179.1522012364237,-1.226148798076462,EngineFailure,1.0,,,,0.0
2025-10-06_22:31:11,39.83492249317661,-104.7194297032062,-1.552804829066436,5.980748189615246,127.3365807975002,-26.24035716419877,-179.1522012467703,-3.276291131820521,EngineFailure,1.0,,,,0.0
2025-10-06_22:31:16,39.83492249317655,-104.7194297032062,-1.552804817434382,5.980748175644696,127.3365807955879,-26.24035721464388,-179.1522012597171,2.776804793107706,EngineFailure,1.0,,,,0.0
2025-10-06_22:31:20,39.83492249317656,-104.7194297032062,-1.552804829066436,5.980747754010254,127.3365808100898,-26.24035711227083,-179.1522012849784,5.204917387168046,EngineFailure,1.0,,,,0.0
2025-10-06_22:31:24,39.83492249317653,-104.7194297032062,-1.552804822087203,5.980748513374594,127.3365808115403,-26.24035719703594,-179.1522012850332,3.956387052730427,EngineFailure,1.0,,,,0.0
2025-10-06_22:31:28,39.83492249317651,-104.7194297032062,-1.552804822087203,5.980748569744132,127.3365808220215,-26.24035721048288,-179.1522013051766,-1.148154887301865,EngineFailure,1.0,,,,0.0
2025-10-06_22:31:33,39.83492249317653,-104.7194297032062,-1.552804822087204,5.980748332691538,127.336580824165,-26.24035711076449,-179.1522013204522,-1.058846752069034,EngineFailure,1.0,,,,0.0
2025-10-06_22:31:37,39.83492249317655,-104.7194297032062,-1.552804824413615,5.980747981640874,127.3365808318573,-26.24035720821344,-179.1522013342565,1.584284364266843,EngineFailure,1.0,,,,0.0
2025-10-06_22:31:41,39.83492249317649,-104.7194297032063,-1.552804829066436,5.980748225759981,127.3365808356602,-26.24035714799725,-179.1522013373519,1.557708031485132,EngineFailure,1.0,,,,0.0
2025-10-06_22:31:45,39.83492249317653,-104.7194297032063,-1.552804824413615,5.980747970228884,127.3365808407441,-26.24035724433609,-179.1522013389272,-3.233821776763414,EngineFailure,1.0,,,,0.0
2025-10-06_22:31:50,39.83492249317648,-104.7194297032062,-1.552804822087204,5.980748058722569,127.3365808400226,-26.24035708551884,-179.1522013435093,-5.643643664198404,EngineFailure,1.0,,,,0.0
2025-10-06_22:31:54,39.83492249317644,-104.7194297032062,-1.552804824413614,5.980748176456937,127.3365808443073,-26.240357096464,-179.1522013550075,4.993035414983494,EngineFailure,1.0,,,,0.0
2025-10-06_22:31:58,39.83492249317644,-104.7194297032063,-1.552804824413615,5.980747845265563,127.3365808478988,-26.24035711062848,-179.1522013659094,2.347107437433277,EngineFailure,1.0,,,,0.0
2025-10-06_22:32:02,39.83492249317644,-104.7194297032062,-1.552804819760792,5.980748172436344,127.3365808560194,-26.24035704066815,-179.1522013876299,-3.423655477758354,EngineFailure,1.0,,,,0.0
2025-10-06_22:32:06,39.83492249317641,-104.7194297032062,-1.552804815107971,5.980748175644696,127.3365808561241,-26.24035723467973,-179.1522013921157,2.476267723777764,EngineFailure,1.0,,,,0.0
2025-10-06_22:32:11,39.83492249317639,-104.7194297032063,-1.552804815107971,5.980748003490163,127.3365808683439,-26.24035703264423,-179.1522014031138,3.888407025978138,EngineFailure,1.0,,,,0.0
2025-10-06_22:32:15,39.83492249317639,-104.7194297032063,-1.552804822087203,5.980748091496505,127.3365808705527,-26.24035710111247,-179.1522014128146,2.610027435344858,EngineFailure,1.0,,,,0.0
2025-10-06_22:32:19,39.83492249317637,-104.7194297032062,-1.552804824413615,5.980748345484337,127.3365808698525,-26.24035719473086,-179.1522014182038,3.31326549246397,EngineFailure,1.0,,,,0.0
2025-10-06_22:32:23,39.83492249317637,-104.7194297032062,-1.552804815107971,5.980748516217439,127.3365808775028,-26.24035708672863,-179.1522014344625,-5.727912138193324,EngineFailure,1.0,,,,0.0
2025-10-06_22:32:27,39.83492249317636,-104.7194297032063,-1.552804826740026,5.980748607188452,127.3365808736949,-26.24035723479645,-179.1522014234739,-5.61144268882134,EngineFailure,1.0,,,,0.0
2025-10-06_22:32:32,39.83492249317643,-104.7194297032063,-1.552804826740025,5.980747791698251,127.3365808917653,-26.24035706465515,-179.1522014544142,4.773206700892709,EngineFailure,1.0,,,,0.0
2025-10-06_22:32:36,39.83492249317646,-104.7194297032062,-1.552804815107971,5.980747875602775,127.3365808934655,-26.24035721951142,-179.1522014616505,-6.532380254862463,EngineFailure,1.0,,,,0.0
2025-10-06_22:32:40,39.83492249317652,-104.7194297032063,-1.552804826740025,5.980748633626902,127.3365808905233,-26.24035705276674,-179.1522014604974,-5.770846937764573,EngineFailure,1.0,,,,0.0
2025-10-06_22:32:44,39.83492249317653,-104.7194297032063,-1.552804810455149,5.980748214875949,127.3365808931127,-26.24035705709031,-179.1522014796325,-6.63253358084216,EngineFailure,1.0,,,,0.0
2025-10-06_22:32:48,39.83492249317653,-104.7194297032063,-1.552804824413615,5.980748205657011,127.3365808963924,-26.24035718167323,-179.1522014600835,3.023824449850517,EngineFailure,1.0,,,,0.0
2025-10-06_22:32:53,39.83492249317652,-104.7194297032064,-1.552804817434382,5.980748224054275,127.3365808816525,-26.24035710245026,-179.1522014258759,1.461061409136034,EngineFailure,1.0,,,,0.0
2025-10-06_22:32:57,39.8349224931765,-104.7194297032064,-1.552804810455149,5.980748517760697,127.3365808847635,-26.2403570979413,-179.1522014471037,1.334995311739344,EngineFailure,1.0,,,,0.0
2025-10-06_22:33:01,39.83492249317649,-104.7194297032064,-1.552804810455149,5.980747953090593,127.3365808881753,-26.24035710089333,-179.1522014590987,-5.559558828843663,EngineFailure,1.0,,,,0.0
2025-10-06_22:33:05,39.83492249317656,-104.7194297032064,-1.552804822087204,5.980748259671052,127.3365808984357,-26.24035709458411,-179.1522014716359,3.43369665639879,EngineFailure,1.0,,,,0.0
2025-10-06_22:33:10,39.83492249317648,-104.7194297032064,-1.552804815107971,5.980748185229143,127.3365809048744,-26.24035710359768,-179.1522014930547,-4.179913376291417,EngineFailure,1.0,,,,0.0
2025-10-06_22:33:14,39.83492249317654,-104.7194297032064,-1.552804824413615,5.980747906630392,127.3365809095044,-26.24035720360325,-179.1522014969875,-5.463002195483582,EngineFailure,1.0,,,,0.0
2025-10-06_22:33:18,39.83492249317651,-104.7194297032064,-1.552804824413615,5.98074788335968,127.3365809108476,-26.24035707526109,-179.1522015089053,3.477298583813005,EngineFailure,1.0,,,,0.0
2025-10-06_22:33:22,39.83492249317657,-104.7194297032064,-1.552804810455149,5.980748124920231,127.3365809235546,-26.24035722952259,-179.1522015294989,-1.491174304595107,EngineFailure,1.0,,,,0.0
2025-10-06_22:33:26,39.83492249317657,-104.7194297032064,-1.552804829066436,5.980748507404622,127.3365809256258,-26.24035713143823,-179.1522015318686,2.931121921199822,EngineFailure,1.0,,,,0.0
2025-10-06_22:33:31,39.83492249317653,-104.7194297032064,-1.552804822087203,5.980748220358577,127.3365809197273,-26.2403571671637,-179.1522015229987,-3.551933288720277,EngineFailure,1.0,,,,0.0
2025-10-06_22:33:35,39.83492249317647,-104.7194297032064,-1.552804822087204,5.980747994636734,127.3365809216666,-26.24035708801497,-179.1522015399648,3.166390004316581,EngineFailure,1.0,,,,0.0
2025-10-06_22:33:39,39.83492249317648,-104.7194297032064,-1.552804822087204,5.980748177918972,127.3365809288581,-26.24035714104817,-179.1522015551904,2.80276152531073,EngineFailure,1.0,,,,0.0
2025-10-06_22:33:43,39.83492249317649,-104.7194297032064,-1.552804824413615,5.980748322904031,127.3365809320754,-26.24035709315535,-179.1522015468026,-3.770665909469364,EngineFailure,1.0,,,,0.0
2025-10-06_22:33:47,39.8349224931765,-104.7194297032065,-1.552804815107971,5.98074834158558,127.3365809456231,-26.24035704897322,-179.1522015848369,-3.527782564028389,EngineFailure,1.0,,,,0.0
2025-10-06_22:33:52,39.83492249317651,-104.7194297032065,-1.552804824413615,5.980748346418415,127.3365809449042,-26.24035703641146,-179.1522015862473,3.28210763658881,EngineFailure,1.0,,,,0.0
2025-10-06_22:33:56,39.83492249317651,-104.7194297032065,-1.552804824413615,5.980748142911374,127.3365809451104,-26.24035716488857,-179.1522015819904,2.990575401444477,EngineFailure,1.0,,,,0.0
2025-10-06_22:34:00,39.83492249317654,-104.7194297032065,-1.552804817434382,5.980748054823811,127.3365809510969,-26.24035712680292,-179.1522015983001,-5.338942996660474,EngineFailure,1.0,,,,0.0
2025-10-06_22:34:04,39.83492249317653,-104.7194297032065,-1.552804817434382,5.980748222064284,127.3365809615335,-26.24035717187313,-179.1522016051777,5.203352094774107,EngineFailure,1.0,,,,0.0
2025-10-06_22:34:08,39.83492249317656,-104.7194297032065,-1.552804824413615,5.98074793534312,127.3365809532045,-26.2403571127938,-179.1522015949638,9.450982716931318,EngineFailure,1.0,,,,0.0
2025-10-06_22:34:13,39.83492249317658,-104.7194297032065,-1.552804808128738,5.980748098766063,127.3365809552168,-26.24035714074477,-179.1522016003144,-2.910212711344582,EngineFailure,1.0,,,,0.0
2025-10-06_22:34:17,39.83492249317661,-104.7194297032065,-1.552804817434382,5.980748470975604,127.3365809558787,-26.24035715572355,-179.1522016008508,2.847485566645348,EngineFailure,1.0,,,,0.0
2025-10-06_22:34:21,39.83492249317663,-104.7194297032065,-1.552804810455149,5.980748037523072,127.3365809600748,-26.24035710215524,-179.1522016256099,2.435396429025924,EngineFailure,1.0,,,,0.0
2025-10-06_22:34:25,39.83492249317665,-104.7194297032065,-1.552804815107971,5.980748287977659,127.3365809648943,-26.2403571773377,-179.1522016189778,3.272617468285349,EngineFailure,1.0,,,,0.0
2025-10-06_22:34:29,39.83492249317664,-104.7194297032065,-1.552804817434382,5.980748018922746,127.3365809612453,-26.24035720986181,-179.1522016228335,-6.297214349112956,EngineFailure,1.0,,,,0.0
2025-10-06_22:34:33,39.8349224931766,-104.7194297032065,-1.552804810455149,5.980748001703233,127.3365809516022,-26.24035716781983,-179.1522016054163,-3.629770511954451,EngineFailure,1.0,,,,0.0
2025-10-06_22:34:37,39.83492249317656,-104.7194297032065,-1.552804810455149,5.980748190874221,127.3365809457746,-26.24035705027766,-179.1522015789011,-1.487396639083279,EngineFailure,1.0,,,,0.0
2025-10-06_22:34:42,39.83492249317653,-104.7194297032065,-1.552804815107971,5.980748371029324,127.3365809501886,-26.24035707403937,-179.1522015887706,2.882276795105143,EngineFailure,1.0,,,,0.0
2025-10-06_22:34:46,39.83492249317651,-104.7194297032065,-1.552804817434382,5.980748195910116,127.3365809449385,-26.24035716686456,-179.152201585666,2.284062222158108,EngineFailure,1.0,,,,0.0
2025-10-06_22:34:50,39.83492249317651,-104.7194297032065,-1.552804810455149,5.980748202164373,127.3365809472721,-26.24035707923801,-179.1522015800837,-5.381888745236812,EngineFailure,1.0,,,,0.0
2025-10-06_22:34:54,39.83492249317649,-104.7194297032065,-1.552804810455149,5.980747958857505,127.3365809460057,-26.2403571464171,-179.1522015852161,2.786940893829598,EngineFailure,1.0,,,,0.0
2025-10-06_22:34:58,39.83492249317643,-104.7194297032065,-1.552804824413615,5.980748514146223,127.3365809502451,-26.24035716928424,-179.1522015959166,2.838274747207906,EngineFailure,1.0,,,,0.0
2025-10-06_22:35:02,39.83492249317645,-104.7194297032065,-1.552804817434382,5.980748319858127,127.3365809486819,-26.24035707302505,-179.1522015850507,8.326819590756935,EngineFailure,1.0,,,,0.0
2025-10-06_22:35:07,39.83492249317645,-104.7194297032066,-1.552804815107971,5.980748182102015,127.3365809525979,-26.24035716942207,-179.1522016061643,-3.211551541499209,EngineFailure,1.0,,,,0.0
2025-10-06_22:35:11,39.83492249317647,-104.7194297032066,-1.552804810455149,5.980748510653587,127.3365809547927,-26.24035712169308,-179.1522016098419,1.643600976068533,EngineFailure,1.0,,,,0.0
2025-10-06_22:35:15,39.83492249317645,-104.7194297032066,-1.552804810455149,5.980747963730954,127.3365809650019,-26.24035703919456,-179.1522016232131,1.321275140532678,EngineFailure,1.0,,,,0.0
2025-10-06_22:35:19,39.83492249317644,-104.7194297032066,-1.552804810455149,5.98074833273215,127.3365809645691,-26.24035707386057,-179.1522016345213,3.162136909220778,EngineFailure,1.0,,,,0.0
2025-10-06_22:35:24,39.83492249317641,-104.7194297032066,-1.552804808128738,5.980748333016434,127.3365809647941,-26.24035712754988,-179.1522016305172,-5.587807306810797,EngineFailure,1.0,,,,0.0
2025-10-06_22:35:28,39.83492249317641,-104.7194297032066,-1.552804810455149,5.98074817629449,127.336580975791,-26.24035707433855,-179.1522016537652,4.976166748647351,EngineFailure,1.0,,,,0.0
2025-10-06_22:35:32,39.83492249317639,-104.7194297032066,-1.552804810455149,5.980748337158864,127.3365809786888,-26.24035706922845,-179.1522016635466,3.12012810911255,EngineFailure,1.0,,,,0.0
2025-10-06_22:35:36,39.83492249317635,-104.7194297032066,-1.55280481278156,5.980748571774736,127.3365809852339,-26.24035720927154,-179.1522016658597,-1.329862622732295,EngineFailure,1.0,,,,0.0
2025-10-06_22:35:40,39.8349224931763,-104.7194297032066,-1.55280481278156,5.980748146200951,127.3365809838137,-26.24035717012585,-179.152201670686,-2.837966362274621,EngineFailure,1.0,,,,0.0
2025-10-06_22:35:45,39.83492249317626,-104.7194297032066,-1.552804808128738,5.980747594283002,127.3365809904754,-26.24035714036759,-179.1522016885518,4.21200471561675,EngineFailure,1.0,,,,0.0
2025-10-06_22:35:49,39.83492249317626,-104.7194297032066,-1.552804810455149,5.980748215444518,127.3365809943129,-26.24035709597328,-179.1522016960144,-6.017726057213211,EngineFailure,1.0,,,,0.0
2025-10-06_22:35:53,39.83492249317631,-104.7194297032066,-1.552804803475916,5.980748563936609,127.3365810050159,-26.24035716492166,-179.152201716421,-4.763099052254244,EngineFailure,1.0,,,,0.0
2025-10-06_22:35:57,39.83492249317626,-104.7194297032066,-1.552804815107971,5.980747949557344,127.3365810096012,-26.24035714404805,-179.1522017244928,1.031885224837088,EngineFailure,1.0,,,,0.0
2025-10-06_22:36:01,39.83492249317624,-104.7194297032066,-1.552804810455149,5.980748178000196,127.3365810070664,-26.24035705593497,-179.1522017287137,-3.336487366362773,EngineFailure,1.0,,,,0.0
2025-10-06_22:36:06,39.83492249317621,-104.7194297032066,-1.552804803475916,5.980748208053122,127.3365810145768,-26.24035713511885,-179.1522017271809,1.385882999634249,EngineFailure,1.0,,,,0.0
2025-10-06_22:36:10,39.83492249317621,-104.7194297032066,-1.552804815107971,5.980748478448223,127.3365810193252,-26.24035714408515,-179.1522017298772,1.241769893583284,EngineFailure,1.0,,,,0.0
2025-10-06_22:36:14,39.83492249317617,-104.7194297032065,-1.552804810455149,5.980748371597892,127.3365810259765,-26.24035714316581,-179.1522017568719,4.554992376929152,EngineFailure,1.0,,,,0.0
2025-10-06_22:36:18,39.83492249317621,-104.7194297032066,-1.552804796496683,5.980748518329266,127.3365810253467,-26.24035701936966,-179.1522017603286,1.201397975986543,EngineFailure,1.0,,,,0.0
2025-10-06_22:36:22,39.83492249317622,-104.7194297032065,-1.552804803475916,5.980748114564155,127.3365810317827,-26.24035713539476,-179.1522017710052,1.35123068101039,EngineFailure,1.0,,,,0.0
2025-10-06_22:36:27,39.83492249317618,-104.7194297032066,-1.552804803475916,5.980748361647938,127.3365810268029,-26.24035701302762,-179.1522017573468,-5.67787532937071,EngineFailure,1.0,,,,0.0
2025-10-06_22:36:31,39.83492249317617,-104.7194297032066,-1.552804801149505,5.980748004383629,127.3365810256774,-26.24035715431146,-179.15220175823,-1.462040523204462,EngineFailure,1.0,,,,0.0
2025-10-06_22:36:35,39.83492249317618,-104.7194297032066,-1.552804810455149,5.980748217718793,127.3365810214499,-26.24035714381171,-179.1522017537879,-5.621279161829747,EngineFailure,1.0,,,,0.0
2025-10-06_22:36:39,39.83492249317613,-104.7194297032066,-1.552804805802327,5.980748360916921,127.336581019194,-26.24035706796195,-179.1522017493977,4.396262737787787,EngineFailure,1.0,,,,0.0
2025-10-06_22:36:43,39.83492249317609,-104.7194297032066,-1.552804808128738,5.980748323228927,127.3365810220153,-26.24035709669351,-179.1522017730808,3.691908611702109,EngineFailure,1.0,,,,0.0
2025-10-06_22:36:47,39.83492249317608,-104.7194297032066,-1.552804817434382,5.980748182264463,127.3365810262655,-26.240357107746,-179.1522017628971,-6.036139689767,EngineFailure,1.0,,,,0.0
2025-10-06_22:36:52,39.83492249317606,-104.7194297032066,-1.552804810455149,5.980748305278397,127.336581029072,-26.24035706126466,-179.1522017663683,2.865555617386868,EngineFailure,1.0,,,,0.0
2025-10-06_22:36:56,39.83492249317608,-104.7194297032066,-1.552804803475916,5.980747719693059,127.3365810374432,-26.24035715807616,-179.1522017888129,3.14678913250731,EngineFailure,1.0,,,,0.0
2025-10-06_22:37:00,39.83492249317604,-104.7194297032066,-1.552804798823094,5.980748237456254,127.3365810478579,-26.2403570326077,-179.1522018100088,-1.309941418196241,EngineFailure,1.0,,,,0.0
2025-10-06_22:37:04,39.83492249317606,-104.7194297032066,-1.552804805802327,5.98074835401287,127.3365810480145,-26.2403571271498,-179.1522018155162,2.785786499804147,EngineFailure,1.0,,,,0.0
2025-10-06_22:37:08,39.83492249317604,-104.7194297032066,-1.552804805802327,5.980747966248902,127.3365810536756,-26.24035709327897,-179.1522018231014,-6.037372995590142,EngineFailure,1.0,,,,0.0
2025-10-06_22:37:13,39.83492249317602,-104.7194297032067,-1.552804805802327,5.980748054092794,127.3365810454113,-26.24035719244824,-179.1522018028413,-7.911233857530381,EngineFailure,1.0,,,,0.0
2025-10-06_22:37:17,39.83492249317602,-104.7194297032067,-1.552804796496683,5.980747963406058,127.3365810491699,-26.24035703026228,-179.1522018147131,4.536772051165085,EngineFailure,1.0,,,,0.0
2025-10-06_22:37:21,39.83492249317599,-104.7194297032066,-1.552804798823095,5.980747963446669,127.3365810487382,-26.24035705566371,-179.1522018073145,-5.456388365552851,EngineFailure,1.0,,,,0.0
2025-10-06_22:37:25,39.83492249317598,-104.7194297032067,-1.552804798823094,5.980748309908172,127.3365810458076,-26.24035703209734,-179.1522018062645,-9.132172639791179,EngineFailure,1.0,,,,0.0
2025-10-06_22:37:29,39.83492249317592,-104.7194297032066,-1.552804803475916,5.980748385446605,127.336581054743,-26.24035701587484,-179.1522018260128,8.088107630632003,EngineFailure,1.0,,,,0.0
2025-10-06_22:37:34,39.83492249317595,-104.7194297032067,-1.552804810455149,5.98074806838824,127.336581061103,-26.24035698874326,-179.1522018533313,2.774853971818849,EngineFailure,1.0,,,,0.0
2025-10-06_22:37:38,39.83492249317596,-104.7194297032066,-1.552804803475916,5.980747932703337,127.3365810656254,-26.24035714183058,-179.1522018572936,2.823411386012258,EngineFailure,1.0,,,,0.0
2025-10-06_22:37:42,39.8349224931759,-104.7194297032066,-1.552804798823094,5.980748701124144,127.3365810749576,0.0,-26.24035702438263,-179.1522018577789,FuelLeak,1.0,,,,0.0
2025-10-06_22:37:49,0.0,-6.495359016358199,39.8349224931759,-104.7194297032067,-1.552804796496683,5.98074795893873,127.3365810687206,-26.24035705319717,FuelLeak,1.0,,,,0.0
2025-10-06_22:37:54,-179.152201858526,-6.065434842199321,39.83492249317587,-104.7194297032066,-1.552804803475916,5.980748352307163,127.3365810747926,-26.24035702326609,FuelLeak,1.0,,,,0.0
2025-10-06_22:37:56,-179.1522018697208,3.429508218041239,39.83492249317591,-104.7194297032067,-1.552804798823094,5.980748265844085,127.3365810811815,-26.2403570331776,FuelLeak,1.0,,,,0.0
2025-10-06_22:37:58,-179.1522018830226,7.236443276357743,39.83492249317584,-104.7194297032066,-1.552804796496683,5.980748093892615,127.3365810772393,-26.24035701851169,FuelLeak,1.0,,,,0.0
2025-10-06_22:38:00,-179.152201872845,8.292053719168685,39.83492249317582,-104.7194297032067,-1.552804798823094,5.980748199565201,127.3365810774064,-26.24035713323294,FuelLeak,1.0,,,,0.0
2025-10-06_22:38:01,-179.1522018772366,-5.383426331568531,39.83492249317587,-104.7194297032067,-1.552804791843862,5.980748511222155,127.3365810815572,-26.24035707929137,FuelLeak,1.0,,,,0.0
2025-10-06_22:38:03,-179.1522018871845,2.711710220384052,39.83492249317587,-104.7194297032067,-1.552804798823094,5.980748213576363,127.3365810789846,-26.24035713253154,FuelLeak,1.0,,,,0.0
2025-10-06_22:38:05,-179.1522018847379,-1.053651801076252,39.83492249317582,-104.7194297032067,-1.552804805802327,5.980747895015342,127.3365810789858,-26.24035712706281,FuelLeak,1.0,,,,0.0
2025-10-06_22:38:07,-179.1522018805685,1.219789421338185,39.8349224931758,-104.7194297032067,-1.552804803475916,5.980748236928297,127.3365810752654,-26.24035705067379,FuelLeak,1.0,,,,0.0
2025-10-06_22:38:09,-179.1522018710945,-1.349680835341195,39.83492249317579,-104.7194297032067,-1.552804791843861,5.980748321238936,127.336581070699,-26.24035702410568,FuelLeak,1.0,,,,0.0
2025-10-06_22:38:10,-179.1522018604828,-3.260070967246133,39.8349224931758,-104.7194297032067,-1.552804798823094,5.980748509110328,127.3365810632391,-26.24035708296124,FuelLeak,1.0,,,,0.0
2025-10-06_22:38:12,-179.1522018417812,-6.187219793532738,39.83492249317579,-104.7194297032067,-1.552804791843862,5.980748000200586,127.3365810636366,-26.24035714365102,FuelLeak,1.0,,,,0.0
2025-10-06_22:38:14,-179.1522018548872,-5.587513579107848,39.83492249317577,-104.7194297032067,-1.552804791843861,5.980748332082357,127.3365810674595,-26.24035701864841,FuelLeak,1.0,,,,0.0
2025-10-06_22:38:16,-179.1522018610758,3.239923997726821,39.83492249317573,-104.7194297032067,-1.552804791843862,5.980747995692647,127.3365810723046,-26.24035713553534,FuelLeak,1.0,,,,0.0
2025-10-06_22:38:17,-179.1522018695418,2.768332713324713,39.83492249317575,-104.7194297032067,-1.552804803475916,5.980748059940931,127.3365810771787,-26.24035706966972,FuelLeak,1.0,,,,0.0
2025-10-06_22:38:19,-179.1522018741871,-5.997809433783944,39.83492249317574,-104.7194297032067,-1.552804791843862,5.98074795520242,127.3365810735209,-26.24035716817648,FuelLeak,1.0,,,,0.0
2025-10-06_22:38:21,-179.1522018673406,5.004017203440567,39.83492249317572,-104.7194297032067,-1.552804791843862,5.98074851211562,127.3365810753074,-26.24035706120357,FuelLeak,1.0,,,,0.0
2025-10-06_22:38:23,-179.1522018757548,2.804282946121806,39.83492249317576,-104.7194297032067,-1.552804805802327,5.980748179137334,127.3365810746517,-26.24035709687255,FuelLeak,1.0,,,,0.0
2025-10-06_22:38:25,-179.1522018738297,3.556550805264162,39.83492249317577,-104.7194297032067,-1.552804791843861,5.980748209312096,127.3365810748779,-26.24035713303209,FuelLeak,1.0,,,,0.0
2025-10-06_22:38:26,-179.1522018786141,1.516391901122602,39.83492249317574,-104.7194297032067,-1.552804796496683,5.980748608244365,127.3365810775556,-26.24035703223733,FuelLeak,1.0,,,,0.0
2025-10-06_22:38:28,-179.1522018823515,-5.894705553260689,39.83492249317575,-104.7194297032067,-1.552804798823094,5.980748153795408,127.336581083493,-26.24035701931885,FuelLeak,1.0,,,,0.0
2025-10-06_22:38:30,-179.1522018924991,3.233410933110212,39.83492249317572,-104.7194297032067,-1.552804798823094,5.980748574658192,127.3365810806942,-26.24035707255979,FuelLeak,1.0,,,,0.0
2025-10-06_22:38:32,-179.152201896493,3.721340783436576,39.83492249317572,-104.7194297032067,-1.552804789517451,5.980747967670323,127.3365810896277,-26.24035711968944,FuelLeak,1.0,,,,0.0
2025-10-06_22:38:34,-179.1522019031362,-6.490369762128011,39.83492249317572,-104.7194297032067,-1.552804791843862,5.980748586882422,127.3365810856155,-26.24035703905125,FuelLeak,1.0,,,,0.0
2025-10-06_22:38:35,-179.1522018941678,3.20070895138777,39.83492249317573,-104.7194297032067,-1.552804791843861,5.980748053849122,127.3365810840176,-26.24035707009141,FuelLeak,1.0,,,,0.0
2025-10-06_22:38:37,-179.1522018951127,-5.371760844983478,39.83492249317571,-104.7194297032068,-1.552804791843862,5.98074817276124,127.3365810862185,-26.24035709287846,FuelLeak,1.0,,,,0.0
2025-10-06_22:38:39,-179.1522018945311,-5.419103607986402,39.8349224931757,-104.7194297032067,-1.552804791843862,5.980748319411394,127.3365810912026,-26.24035700046241,FuelLeak,1.0,,,,0.0
2025-10-06_22:38:41,-179.1522019095461,5.043787505639544,39.83492249317572,-104.7194297032068,-1.552804782538218,5.980748514349283,127.336581093696,-26.24035706020969,FuelLeak,1.0,,,,0.0
2025-10-06_22:38:43,-179.1522019116383,-3.943365709637822,39.83492249317568,-104.7194297032067,-1.552804794170273,5.980748165004337,127.3365810948367,-26.24035709730153,FuelLeak,1.0,,,,0.0
2025-10-06_22:38:44,-179.1522019186491,1.257888326653369,39.83492249317571,-104.7194297032067,-1.552804798823094,5.980748211180251,127.336581098181,-26.24035702746657,FuelLeak,1.0,,,,0.0
2025-10-06_22:38:46,-179.1522019306283,1.425667739520599,39.83492249317571,-104.7194297032068,-1.552804791843862,5.980748187016073,127.3365811064867,-26.24035711461771,FuelLeak,1.0,,,,0.0
2025-10-06_22:38:48,-179.1522019440164,-6.042309932934783,39.83492249317568,-104.7194297032067,-1.552804791843862,5.98074795361855,127.3365811127286,-26.24035707030887,FuelLeak,1.0,,,,0.0
2025-10-06_22:38:50,-179.1522019595417,-5.55404392881141,39.83492249317573,-104.7194297032068,-1.552804791843861,5.980748217962466,127.3365811166581,-26.24035701984144,FuelLeak,1.0,,,,0.0
2025-10-06_22:38:51,-179.1522019620954,-5.605560745655914,39.8349224931757,-104.7194297032067,-1.552804789517451,5.980748520156809,127.3365811136787,-26.2403570551142,FuelLeak,1.0,,,,0.0
2025-10-06_22:38:53,-179.1522019666323,-6.213126715335843,39.83492249317572,-104.7194297032068,-1.552804782538218,5.980748534086745,127.336581124106,-26.24035705406042,FuelLeak,1.0,,,,0.0
2025-10-06_22:38:55,-179.1522019823349,-1.591466381921522,39.83492249317576,-104.7194297032068,-1.552804791843862,5.980747884618655,127.3365811237259,-26.24035717433371,FuelLeak,1.0,,,,0.0
2025-10-06_22:38:57,-179.1522019860079,-5.924292180400456,39.83492249317573,-104.7194297032067,-1.552804789517451,5.980748172436344,127.3365811265349,-26.24035700912197,FuelLeak,1.0,,,,0.0
2025-10-06_22:38:59,-179.1522019839051,3.594175993987546,39.83492249317575,-104.7194297032068,-1.552804791843861,5.980748565073746,127.3365811244057,-26.24035705015373,FuelLeak,1.0,,,,0.0
2025-10-06_22:39:00,-179.152201984082,-4.940742934626005,39.83492249317572,-104.7194297032068,-1.552804796496683,5.98074815700376,127.3365811258526,-26.24035696952061,FuelLeak,1.0,,,,0.0
2025-10-06_22:39:02,-179.1522019776775,-5.616618265151795,39.83492249317568,-104.7194297032067,-1.552804796496683,5.980747952562636,127.3365811251282,-26.24035706583135,FuelLeak,1.0,,,,0.0
2025-10-06_22:39:04,-179.1522019898886,-7.95276563807917,39.83492249317571,-104.7194297032068,-1.552804798823094,5.980748209230871,127.3365811266035,-26.24035708498482,FuelLeak,1.0,,,,0.0
2025-10-06_22:39:06,-179.1522019926968,7.253304457774921,39.83492249317571,-104.7194297032068,-1.552804791843862,5.980748203910692,127.3365811331871,-26.24035701415625,FuelLeak,1.0,,,,0.0
2025-10-06_22:39:08,-179.152201997843,-1.327226265343539,39.83492249317573,-104.7194297032068,-1.552804789517451,5.980748257884121,127.3365811338129,-26.24035700545157,FuelLeak,1.0,,,,0.0
2025-10-06_22:39:10,-179.1522019984346,4.712408443054465,39.83492249317574,-104.7194297032067,-1.552804798823094,5.980748341179459,127.3365811310704,-26.24035701482166,FuelLeak,1.0,,,,0.0
2025-10-06_22:39:11,-179.1522020108403,3.931134213481516,39.83492249317575,-104.7194297032068,-1.552804789517451,5.98074833273215,127.3365811344664,-26.24035701174004,FuelLeak,1.0,,,,0.0
2025-10-06_22:39:13,-179.152201993207,2.827999669856932,39.8349224931757,-104.7194297032068,-1.552804782538218,5.980747967873383,127.3365811309014,-26.24035711400073,FuelLeak,1.0,,,,0.0
2025-10-06_22:39:15,-179.1522019994105,3.651135202107914,39.83492249317568,-104.7194297032068,-1.552804791843862,5.980748320345471,127.3365811343,-26.24035701983793,FuelLeak,1.0,,,,0.0
2025-10-06_22:39:17,-179.1522020036518,3.052562514126331,39.83492249317568,-104.7194297032068,-1.552804794170273,5.980748600325014,127.3365811337454,-26.24035702695241,FuelLeak,1.0,,,,0.0
2025-10-06_22:39:19,-179.152202001759,-3.486019362478978,39.83492249317566,-104.7194297032068,-1.552804791843862,5.980748139459349,127.3365811325371,-26.24035705135883,FuelLeak,1.0,,,,0.0
2025-10-06_22:39:20,-179.1522020044102,3.698931710427391,39.83492249317566,-104.7194297032068,-1.552804789517451,5.980748351007578,127.3365811352408,-26.24035702400041,FuelLeak,1.0,,,,0.0
2025-10-06_22:39:22,-179.1522020023907,-1.311981054430703,39.83492249317565,-104.7194297032068,-1.552804798823094,5.980748342844554,127.3365811362835,-26.2403571080156,FuelLeak,1.0,,,,0.0
2025-10-06_22:39:24,-179.1522020118949,1.88918369032535,39.83492249317568,-104.7194297032068,-1.552804791843862,5.980748333625615,127.3365811391441,-26.24035702512475,FuelLeak,1.0,,,,0.0
2025-10-06_22:39:26,-179.152202020554,-4.038225347704789,39.83492249317564,-104.7194297032068,-1.552804796496683,5.980748351413698,127.3365811416074,-26.2403570040006,FuelLeak,1.0,,,,0.0
2025-10-06_22:39:27,-179.1522020223273,1.196455784569605,39.83492249317564,-104.7194297032068,-1.552804796496683,5.980747946145931,127.3365811444799,-26.2403570737901,FuelLeak,1.0,,,,0.0
2025-10-06_22:39:29,-179.1522020325738,1.11247214812663,39.83492249317563,-104.7194297032068,-1.552804798823094,5.98074835283512,127.3365811521002,-26.2403570976286,FuelLeak,1.0,,,,0.0
2025-10-06_22:39:31,-179.1522020381157,3.266282352386554,39.83492249317566,-104.7194297032068,-1.552804789517451,5.980747730414644,127.3365811535333,-26.24035710671202,FuelLeak,1.0,,,,0.0
2025-10-06_22:39:33,-179.1522020396812,-5.951158408060807,39.83492249317559,-104.7194297032068,-1.552804784864629,5.98074800478975,127.3365811418751,-26.24035712727147,FuelLeak,1.0,,,,0.0
2025-10-06_22:39:35,-179.1522020247425,3.392432671602994,39.83492249317555,-104.7194297032068,-1.552804784864629,5.980748337118253,127.3365811417135,-26.2403570267744,FuelLeak,1.0,,,,0.0
2025-10-06_22:39:36,-179.1522020198646,1.587270850750999,39.83492249317555,-104.7194297032068,-1.552804782538218,5.980748177350402,127.3365811466187,-26.24035709089339,FuelLeak,1.0,,,,0.0
2025-10-06_22:39:38,-179.1522020356137,5.178885634738922,39.83492249317557,-104.7194297032068,-1.552804803475916,5.980748326437281,127.3365811509211,-26.24035699759319,FuelLeak,1.0,,,,0.0
2025-10-06_22:39:40,-179.1522020389774,2.634094257566427,39.83492249317555,-104.7194297032068,-1.552804791843862,5.980748325503203,127.3365811529175,-26.24035699248437,FuelLeak,1.0,,,,0.0
2025-10-06_22:39:42,-179.152202039187,-5.954556372313207,39.83492249317553,-104.7194297032068,-1.552804789517451,5.980748000890991,127.3365811521319,-26.24035711311738,FuelLeak,1.0,,,,0.0
2025-10-06_22:39:43,-179.1522020476413,-6.202942036348317,39.83492249317553,-104.7194297032068,-1.552804796496683,5.980748232785867,127.336581154955,-26.24035701035354,FuelLeak,1.0,,,,0.0
2025-10-06_22:39:45,-179.1522020477584,2.99406347748843,39.83492249317557,-104.7194297032068,-1.552804775558985,5.980748363150584,127.3365811581989,-26.24035709547801,FuelLeak,1.0,,,,0.0
2025-10-06_22:39:47,-179.1522020627182,3.033254356572072,39.83492249317555,-104.7194297032068,-1.552804791843862,5.980748218003077,127.3365811532801,-26.240357095913,FuelLeak,1.0,,,,0.0
2025-10-06_22:39:49,-179.152202048171,3.199246631141351,39.83492249317554,-104.7194297032068,-1.552804777885396,5.980747600496647,127.3365811539332,-26.24035714183745,FuelLeak,1.0,,,,0.0
2025-10-06_22:39:51,-179.1522020485454,3.907245917527489,39.83492249317551,-104.7194297032068,-1.552804791843861,5.980748210043114,127.3365811414496,-26.24035710076099,FuelLeak,1.0,,,,0.0
2025-10-06_22:39:53,-179.1522020247881,4.918527760055097,39.83492249317549,-104.7194297032068,-1.552804791843862,5.980748177025507,127.3365811464396,-26.24035708158528,FuelLeak,1.0,,,,0.0
2025-10-06_22:39:55,-179.1522020291104,-1.293859446854006,39.83492249317548,-104.7194297032068,-1.552804780211807,5.980748355637353,127.3365811518057,-26.24035708910925,FuelLeak,1.0,,,,0.0
2025-10-06_22:39:56,-179.1522020499782,1.229264229672008,39.8349224931755,-104.7194297032068,-1.552804784864629,5.980748697915791,127.3365811467621,-26.24035700034619,FuelLeak,1.0,,,,0.0
2025-10-06_22:39:58,-179.1522020234038,4.442808681073542,39.8349224931755,-104.7194297032068,-1.552804784864629,5.980747785119096,127.3365811564804,-26.24035715508012,FuelLeak,1.0,,,,0.0
2025-10-06_22:40:00,-179.1522020360976,-1.190909371665101,39.83492249317549,-104.7194297032068,-1.552804791843862,5.980748521131498,127.3365811396397,-26.24035706449024,FuelLeak,1.0,,,,0.0
2025-10-06_22:40:02,-179.1522020260611,-1.190779199155492,39.83492249317546,-104.7194297032068,-1.552804789517451,5.980748362663239,127.3365811464818,-26.24035699725736,FuelLeak,1.0,,,,0.0
2025-10-06_22:40:03,-179.1522020300495,3.521157362551069,39.8349224931755,-104.7194297032068,-1.552804791843861,5.980747743369894,127.3365811468509,-26.24035710426319,FuelLeak,1.0,,,,0.0
2025-10-06_22:40:05,-179.1522020330301,-5.657930434378398,39.83492249317545,-104.7194297032068,-1.552804796496683,5.980748183157928,127.3365811536936,-26.24035710503818,FuelLeak,1.0,,,,0.0
2025-10-06_22:40:07,-179.1522020399579,-5.673289708057054,39.83492249317545,-104.7194297032068,-1.552804789517451,5.980748055189319,127.3365811524862,-26.24035705811366,FuelLeak,1.0,,,,0.0
2025-10-06_22:40:09,-179.1522020452483,1.502167247659719,39.83492249317543,-104.7194297032068,-1.552804789517451,5.980748334925202,127.3365811562696,-26.24035699214807,FuelLeak,1.0,,,,0.0
2025-10-06_22:40:11,-179.1522020560038,2.858276546711014,39.83492249317548,-104.7194297032068,-1.552804784864629,5.980748241476849,127.3365811644217,-26.24035700552246,FuelLeak,1.0,,,,0.0
2025-10-06_22:40:12,-179.1522020758475,-5.004114211901861,39.83492249317546,-104.7194297032068,-1.552804796496683,5.980748192173806,127.3365811667871,-26.24035710470941,FuelLeak,1.0,,,,0.0
2025-10-06_22:40:14,-179.1522020720253,-4.151819999763439,39.83492249317542,-104.7194297032068,-1.552804796496683,5.980748057098086,127.3365811652053,-26.24035706221535,FuelLeak,1.0,,,,0.0
2025-10-06_22:40:16,-179.1522020795934,2.690621707288977,39.83492249317543,-104.7194297032068,-1.552804780211807,5.980748342600882,127.3365811711129,-26.24035700026426,FuelLeak,1.0,,,,0.0
2025-10-06_22:40:18,-179.1522020856088,-6.171283258587282,39.83492249317545,-104.7194297032068,-1.552804782538218,5.980748060347052,127.3365811732444,-26.24035705423652,FuelLeak,1.0,,,,0.0
2025-10-06_22:40:20,-179.1522020923347,-3.53429115189666,39.83492249317542,-104.7194297032068,-1.552804791843861,5.980748085242245,127.3365811790123,-26.24035698306561,FuelLeak,1.0,,,,0.0
2025-10-06_22:40:22,-179.1522021192317,1.279696823693009,39.83492249317547,-104.7194297032068,-1.552804782538218,5.980748351779208,127.3365811818009,-26.24035699359752,FuelLeak,1.0,,,,0.0
2025-10-06_22:40:23,-179.1522021166533,2.768309846885969,39.83492249317548,-104.7194297032068,-1.552804791843862,5.980748185188532,127.3365811947794,-26.24035710972042,FuelLeak,1.0,,,,0.0
2025-10-06_22:40:25,-179.1522021293164,-1.530649143522252,39.83492249317548,-104.7194297032068,-1.552804789517451,5.98074818632567,127.3365811944552,-26.24035710872461,FuelLeak,1.0,,,,0.0
2025-10-06_22:40:27,-179.1522021565299,3.079896972639425,39.83492249317548,-104.7194297032068,-1.552804784864629,5.980747986189424,127.3365812020641,-26.24035706100647,FuelLeak,1.0,,,,0.0
2025-10-06_22:40:29,-179.1522021599864,2.758785802472981,39.83492249317545,-104.7194297032068,-1.552804791843862,5.980747835031323,127.336581195479,-26.24035710430045,FuelLeak,1.0,,,,0.0
2025-10-06_22:40:31,-179.152202153389,-5.435271541818697,39.83492249317538,-104.7194297032068,-1.552804789517451,5.980748242857659,127.3365811887784,-26.24035701751508,FuelLeak,1.0,,,,0.0
2025-10-06_22:40:33,-179.1522021284212,1.086746910885322,39.83492249317538,-104.7194297032068,-1.552804798823094,5.980748057016863,127.3365811821473,-26.24035706401736,FuelLeak,1.0,,,,0.0
2025-10-06_22:40:34,-179.1522021163362,-1.298686509164958,39.83492249317541,-104.7194297032069,-1.552804782538218,5.980748506064424,127.3365811832513,-26.24035705630948,FuelLeak,1.0,,,,0.0
2025-10-06_22:40:36,-179.1522021299978,-3.311295083496791,39.83492249317543,-104.7194297032068,-1.552804794170272,5.98074774804028,127.3365811996777,-26.24035716179053,FuelLeak,1.0,,,,0.0
2025-10-06_22:40:38,-179.1522021557189,3.21656292482758,39.83492249317541,-104.7194297032068,-1.552804791843861,5.980748011165844,127.3365811903123,-26.2403571593249,FuelLeak,1.0,,,,0.0
2025-10-06_22:40:40,-179.1522021323329,2.845425911020257,39.83492249317541,-104.7194297032069,-1.552804789517451,5.98074821568819,127.3365811857134,-26.24035711642725,FuelLeak,1.0,,,,0.0
2025-10-06_22:40:42,-179.1522021283799,-1.130098409574985,39.83492249317541,-104.7194297032069,-1.552804784864629,5.980748142505254,127.3365811886137,-26.24035700535719,FuelLeak,1.0,,,,0.0
2025-10-06_22:40:43,-179.1522021245425,1.132519790399825,39.83492249317539,-104.7194297032069,-1.552804784864629,5.980747962471979,127.3365811828322,-26.24035715414063,FuelLeak,1.0,,,,0.0
2025-10-06_22:40:45,-179.1522021180832,1.508272690355709,39.83492249317537,-104.7194297032069,-1.552804784864629,5.980748336062339,127.3365811928185,-26.24035700851834,FuelLeak,1.0,,,,0.0
2025-10-06_22:40:47,-179.1522021357762,-5.578692680159303,39.8349224931754,-104.7194297032069,-1.552804782538218,5.980748213129631,127.3365811917898,-26.24035702193366,FuelLeak,1.0,,,,0.0
2025-10-06_22:40:49,-179.1522021327335,-6.141036798558648,39.83492249317536,-104.7194297032069,-1.552804789517451,5.9807481359261,127.3365812008824,-26.24035704262928,FuelLeak,1.0,,,,0.0
2025-10-06_22:40:51,-179.152202147255,3.15982556962564,39.83492249317534,-104.7194297032068,-1.552804789517451,5.980748339189469,127.336581196259,-26.2403570153851,FuelLeak,1.0,,,,0.0
2025-10-06_22:40:53,-179.1522021785823,1.284633450331021,39.8349224931753,-104.7194297032067,-1.552804777885396,5.980747909229565,127.336581239605,-26.24035703425335,FuelLeak,1.0,,,,0.0
2025-10-06_22:40:55,-179.1522022611314,4.868953387490506,39.83492249317528,-104.7194297032065,-1.552804784864629,5.980748301339027,127.3365812732214,-26.24035697814586,FuelLeak,1.0,,,,0.0
2025-10-06_22:40:56,-179.1522023427165,2.274968752705519,39.83492249317528,-104.7194297032064,-1.552804782538218,5.980748399945111,127.3365813064474,-26.24035701346003,FuelLeak,1.0,,,,0.0
2025-10-06_22:40:59,-179.1522023928943,3.881937875134672,39.83492249317523,-104.7194297032062,-1.552804782538218,5.980748438242284,127.3365813350177,-26.24035708113387,FuelLeak,1.0,,,,0.0
2025-10-06_22:41:01,-179.1522024864563,-3.419079482700065,39.83492249317521,-104.719429703206,-1.552804777885396,5.980747678634261,127.3365814013751,-26.24035708101766,FuelLeak,1.0,,,,0.0
2025-10-06_22:41:03,-179.1522026150652,-2.990227479348659,39.83492249317521,-104.7194297032057,-1.552804777885396,5.980748347799226,127.3365814424246,-26.24035696797057,FuelLeak,1.0,,,,0.0
2025-10-06_22:41:06,-179.1522027046252,-3.94805851324184,39.83492249317512,-104.7194297032055,-1.552804784864629,5.980747972340711,127.3365814836974,-26.24035699477595,FuelLeak,1.0,,,,0.0
2025-10-06_22:41:08,-179.1522028256748,2.616327084863712,39.83492249317514,-104.7194297032053,-1.552804784864629,5.980748361729161,127.3365815229843,-26.24035693393722,FuelLeak,1.0,,,,0.0
2025-10-06_22:41:10,-179.1522029085107,2.973398682055543,39.83492249317512,-104.7194297032051,-1.55280478719104,5.980748273966499,127.3365815669864,-26.24035700472751,FuelLeak,1.0,,,,0.0
2025-10-06_22:41:12,-179.1522029967599,1.256278939762537,39.83492249317514,-104.719429703205,-1.552804791843862,5.98074829605946,127.3365815995776,-26.24035700784827,FuelLeak,1.0,,,,0.0
2025-10-06_22:41:13,-179.1522030487812,-2.241507275466248,39.83492249317514,-104.7194297032048,-1.552804773232574,5.980748126625937,127.3365816288527,-26.24035683742885,FuelLeak,1.0,,,,0.0
2025-10-06_22:41:15,-179.152203152164,1.230126859276025,39.83492249317516,-104.7194297032046,-1.552804784864629,5.980748196356848,127.3365816856448,-26.24035703536399,FuelLeak,1.0,,,,0.0
2025-10-06_22:41:17,-179.1522032490398,-5.351919989692067,39.83492249317513,-104.7194297032044,-1.552804777885396,5.980748179502842,127.3365817071767,-26.24035700228275,FuelLeak,1.0,,,,0.0
2025-10-06_22:41:19,-179.1522032740853,1.048319867217296,39.83492249317508,-104.7194297032042,-1.552804777885396,5.980748182589359,127.3365817547716,-26.24035699690765,FuelLeak,1.0,,,,0.0
2025-10-06_22:41:20,-179.1522035351625,-1.976153290272148,39.8349224931751,-104.7194297032041,-1.552804794170273,5.98074818437629,127.3365820273825,-26.24035690401579,FuelLeak,1.0,,,,0.0
2025-10-06_22:41:22,-179.1522041493654,-1.562171723794335,39.83492249317513,-104.7194297032039,-1.552804819760793,5.980748183645273,127.3365822495415,-26.24035677444389,FuelLeak,1.0,,,,0.0
2025-10-06_22:41:24,-179.1522046652157,1.177324710713678,39.83492249317514,-104.7194297032037,-1.552804836045669,5.980748181695894,127.3365824947884,-26.24035665981094,FuelLeak,1.0,,,,0.0
2025-10-06_22:41:26,-179.1522051635794,-1.850800214508669,39.83492249317519,-104.7194297032035,-1.552804866289011,5.980748184985472,127.3365827197598,-26.24035653821281,FuelLeak,1.0,,,,0.0
2025-10-06_22:41:28,-179.152205663846,1.285339074752386,39.83492249317523,-104.7194297032034,-1.552804887226709,5.980748181492833,127.3365828965459,-26.24035642447462,FuelLeak,1.0,,,,0.0
2025-10-06_22:41:29,-179.1522060877404,-1.158317097576503,39.83492249317527,-104.7194297032032,-1.552804910490819,5.980748182589359,127.3365830829082,-26.24035629908463,FuelLeak,1.0,,,,0.0
2025-10-06_22:41:31,-179.1522065252332,-2.044715132166016,39.83492249317529,-104.719429703203,-1.552804936081339,5.980748182508135,127.3365833750137,-26.24035617648086,FuelLeak,1.0,,,,0.0
2025-10-06_22:41:33,-179.1522071534654,-2.821803827921851,39.83492249317534,-104.7194297032028,-1.55280496399827,5.980748182467523,127.3365836054547,-26.24035605935494,FuelLeak,1.0,,,,0.0
2025-10-06_22:41:35,-179.1522076677716,-2.164399427833338,39.83492249317536,-104.7194297032026,-1.55280498958879,5.980748182629971,127.3365838826556,-26.24035594545269,FuelLeak,1.0,,,,0.0
2025-10-06_22:41:37,-179.1522082857587,-7.294889337687183,39.83492249317539,-104.7194297032024,-1.552805008200077,5.980748180883653,127.336584131693,-26.24035582637095,FuelLeak,1.0,,,,0.0
2025-10-06_22:41:38,-179.1522088118384,-1.728472480847744,39.83492249317543,-104.7194297032023,-1.552805033790598,5.980748180883653,127.3365843674,-26.24035569477389,FuelLeak,1.0,,,,0.0
2025-10-06_22:41:40,-179.1522094326811,-1.502928223457305,39.83492249317547,-104.7194297032021,-1.55280506403394,5.980748182142626,127.3365846538187,-26.24035557512147,FuelLeak,1.0,,,,0.0
2025-10-06_22:41:42,-179.152209988354,-3.740367766107487,39.83492249317549,-104.7194297032019,-1.552805084971638,5.980748180924264,127.3365848575239,-26.24035548526071,FuelLeak,1.0,,,,0.0
2025-10-06_22:41:44,-179.1522103337625,-4.070511620703978,39.83492249317554,-104.7194297032017,-1.55280511288857,5.980748182264463,127.3365849773235,-26.24035534627069,FuelLeak,1.0,,,,0.0
2025-10-06_22:41:46,-179.1522107584149,-2.128876589246119,39.83492249317556,-104.7194297032016,-1.552805129173445,5.98074817726918,127.3365852276681,-26.24035523795686,FuelLeak,1.0,,,,0.0
2025-10-06_22:41:47,-179.1522112643873,-1.65980127434981,39.8349224931756,-104.7194297032014,-1.552805145458322,5.980748180761815,127.3365854973979,-26.2403551279873,FuelLeak,1.0,,,,0.0
2025-10-06_22:41:49,-179.152211890348,-2.994036063609311,39.83492249317565,-104.7194297032012,-1.552805194312952,5.980748180558757,127.3365856987323,-26.24035500128197,FuelLeak,1.0,,,,0.0
2025-10-06_22:41:51,-179.1522123054716,-7.093438114438851,39.83492249317566,-104.719429703201,-1.552805201292184,5.980748182873644,127.336585917237,-26.240354903754,FuelLeak,1.0,,,,0.0
2025-10-06_22:41:53,-179.1522128510013,-1.616555923632832,39.83492249317572,-104.7194297032009,-1.552805231535526,5.980748181492833,127.3365861477672,-26.24035477721888,FuelLeak,1.0,,,,0.0
2025-10-06_22:41:54,-179.1522133607458,-1.41748324273918,39.83492249317575,-104.7194297032007,-1.552805252473225,5.980748179990187,127.3365863825452,-26.24035466017223,FuelLeak,1.0,,,,0.0
2025-10-06_22:41:56,-179.1522139587941,-2.399536618122117,39.83492249317577,-104.7194297032005,-1.552805271084512,5.980748181249162,127.3365866524376,-26.24035453424317,FuelLeak,1.0,,,,0.0
2025-10-06_22:41:58,-179.1522144821571,-2.551072212133451,39.83492249317579,-104.7194297032003,-1.552805301327854,5.980748181330386,127.3365869060273,-26.24035441396867,FuelLeak,1.0,,,,0.0
2025-10-06_22:42:00,-179.152215015227,-1.997916269746389,39.83492249317593,-104.7194297032002,-1.552805848034422,5.980747725053852,127.3365875676092,-26.24035156928301,FuelLeak,1.0,,,,0.0
2025-10-06_22:42:02,-179.1522163863295,2.470461317461434,39.83492249317598,-104.7194297032,-1.552805861992888,5.980748014577257,127.3365876102322,-26.24035163306587,FuelLeak,1.0,,,,0.0
2025-10-06_22:42:03,-179.1522164977067,-2.749616115566768,39.83492249317602,-104.7194297031999,-1.552805861992887,5.980747823172601,127.3365876529677,-26.24035157291501,FuelLeak,1.0,,,,0.0
2025-10-06_22:42:05,-179.1522165761955,-3.116150663339666,39.83492249317599,-104.7194297031996,-1.552805855013655,5.980748296262519,127.3365877060732,-26.2403515991794,FuelLeak,1.0,,,,0.0
2025-10-06_22:42:07,-179.1522167002456,9.926412405685438,39.83492249317604,-104.7194297031995,-1.552805855013655,5.980747979244762,127.336587756354,-26.2403516052779,FuelLeak,1.0,,,,0.0
2025-10-06_22:42:09,-179.1522168009734,-4.681740443896536,39.8349224931761,-104.7194297031994,-1.552805857340065,5.980747599197061,127.3365878090709,-26.24035154826583,FuelLeak,1.0,,,,0.0
2025-10-06_22:42:11,-179.1522169533601,-2.42308497823039,39.83492249317617,-104.7194297031991,-1.552805859666476,5.980748398239403,127.3365878607996,-26.24035153042094,FuelLeak,1.0,,,,0.0
2025-10-06_22:42:13,-179.1522170548642,5.41330138939278,39.83492249317616,-104.719429703199,-1.552805859666477,5.980748437673714,127.336587901606,-26.24035147153447,FuelLeak,1.0,,,,0.0
2025-10-06_22:42:15,-179.1522171537432,2.632363556339812,39.83492249317615,-104.7194297031988,-1.552805848034422,5.980748189777694,127.3365879407016,-26.2403516127519,FuelLeak,1.0,,,,0.0
2025-10-06_22:42:16,-179.1522172163568,5.771080344488896,39.83492249317614,-104.7194297031987,-1.552805859666477,5.980748199808874,127.336587964872,-26.2403515723726,FuelLeak,1.0,,,,0.0
2025-10-06_22:42:18,-179.1522172768644,4.314328928098534,39.83492249317609,-104.7194297031985,-1.552805859666477,5.980748285216039,127.3365880034299,-26.24035153391072,FuelLeak,1.0,,,,0.0
2025-10-06_22:42:20,-179.1522173664938,1.894324793065318,39.83492249317608,-104.7194297031983,-1.552805855013655,5.980748000809768,127.3365880514054,-26.24035157539084,FuelLeak,1.0,,,,0.0
2025-10-06_22:42:22,-179.1522174537633,-2.750448779498156,39.83492249317614,-104.7194297031981,-1.552805861992888,5.980748414199945,127.3365880859748,-26.24035155345682,FuelLeak,1.0,,,,0.0
2025-10-06_22:42:23,-179.152217537536,3.94605537918086,39.83492249317617,-104.7194297031979,-1.552805845708011,5.980748335209487,127.3365881239883,-26.24035149297788,FuelLeak,1.0,,,,0.0
2025-10-06_22:42:25,-179.1522176564476,3.439865780816303,39.83492249317622,-104.7194297031978,-1.552805852687243,5.980748358480197,127.3365881749304,-26.24035148537192,FuelLeak,1.0,,,,0.0
2025-10-06_22:42:27,-179.1522177633374,-6.420226593464484,39.83492249317618,-104.7194297031976,-1.552805848034422,5.980748470082139,127.3365882170502,-26.24035150686642,FuelLeak,1.0,,,,0.0
2025-10-06_22:42:29,-179.1522178782518,8.69120344046991,39.83492249317615,-104.7194297031974,-1.552805852687243,5.98074809970014,127.3365882533674,-26.24035155886302,FuelLeak,1.0,,,,0.0
2025-10-06_22:42:31,-179.1522179342321,-6.827424296228053,39.83492249317615,-104.7194297031972,-1.5528058433816,5.980748120087395,127.3365882931329,-26.24035151552143,FuelLeak,1.0,,,,0.0
2025-10-06_22:42:33,-179.1522180189914,4.111278221888795,39.83492249317617,-104.719429703197,-1.5528058433816,5.980748102136864,127.3365883363632,-26.24035149554788,FuelLeak,1.0,,,,0.0
2025-10-06_22:42:35,-179.1522181460038,-2.304105108835039,39.8349224931762,-104.7194297031969,-1.552805845708011,5.980748380654382,127.3365883866871,-26.24035143765939,FuelLeak,1.0,,,,0.0
2025-10-06_22:42:37,-179.1522182263247,3.043983153998049,39.83492249317613,-104.7194297031967,-1.552805841055189,5.980747717662457,127.3365884229163,-26.24035153666391,FuelLeak,1.0,,,,0.0
2025-10-06_22:42:39,-179.1522183092733,-4.963236977756758,39.83492249317612,-104.7194297031965,-1.552805845708011,5.980748226450386,127.3365884754526,-26.24035136505032,FuelLeak,1.0,,,,0.0
2025-10-06_22:42:41,-179.1522184054559,2.229978102847786,39.83492249317608,-104.7194297031963,-1.552805861992887,5.980748058600732,127.3365885010602,-26.240351452932,FuelLeak,1.0,,,,0.0
2025-10-06_22:42:43,-179.1522184668711,1.55165072769572,39.83492249317614,-104.7194297031961,-1.552805852687244,5.980748011612576,127.3365885338135,-26.24035142250802,FuelLeak,1.0,,,,0.0
2025-10-06_22:42:45,-179.1522185603388,5.649491354653621,39.83492249317612,-104.7194297031959,-1.552805852687243,5.980748304709829,127.3365885701594,-26.24035145877081,FuelLeak,1.0,,,,0.0
2025-10-06_22:42:46,-179.1522186426648,1.634749175489638,39.83492249317614,-104.7194297031957,-1.5528058433816,5.980748102705433,127.3365886156844,-26.24035137673636,FuelLeak,1.0,,,,0.0
2025-10-06_22:42:48,-179.1522187912842,1.212581071489056,39.83492249317613,-104.7194297031956,-1.552805848034422,5.980748207484554,127.336588657084,-26.24035146365446,FuelLeak,1.0,,,,0.0
2025-10-06_22:42:50,-179.152218835949,1.064955268341465,39.83492249317608,-104.7194297031954,-1.552805841055189,5.980748185391591,127.3365886552047,-26.24035147285544,FuelLeak,1.0,,,,0.0
2025-10-06_22:42:51,-179.1522188004305,1.746086840123017,39.83492249317603,-104.7194297031953,-1.552805845708011,5.980748183848332,127.336588656358,-26.24035146807163,FuelLeak,1.0,,,,0.0
2025-10-06_22:42:53,-179.1522188180199,-1.462315375157214,39.83492249317603,-104.7194297031951,-1.552805855013655,5.980748184498126,127.3365888522879,-26.24035138057303,FuelLeak,1.0,,,,0.0
2025-10-06_22:42:55,-179.1522193688897,-1.742557649148309,39.83492249317607,-104.7194297031949,-1.552805880604175,5.980748186000772,127.3365891130547,-26.24035126519526,FuelLeak,1.0,,,,0.0
2025-10-06_22:42:57,-179.1522199395745,-8.559717185952184,39.83492249317609,-104.7194297031947,-1.552805896889051,5.980748183442213,127.3365893132354,-26.24035115719032,FuelLeak,1.0,,,,0.0
2025-10-06_22:42:58,-179.1522204456763,4.057499506354817,39.83492249317614,-104.7194297031946,-1.552805931785215,5.980748185757101,127.3365895346182,-26.2403510355494,FuelLeak,1.0,,,,0.0
2025-10-06_22:43:00,-179.1522209270983,-1.006429716236945,39.83492249317617,-104.7194297031944,-1.552805948070091,5.980748181898954,127.3365897995413,-26.2403509258896,FuelLeak,1.0,,,,0.0
2025-10-06_22:43:02,-179.1522215072024,-2.247841373807738,39.8349224931762,-104.7194297031942,-1.55280596900779,5.980748184457513,127.3365899521712,-26.24035081348247,FuelLeak,1.0,,,,0.0
2025-10-06_22:43:04,-179.1522218384974,7.133256642010296,39.83492249317624,-104.7194297031941,-1.552805989945488,5.980748184010781,127.3365901249024,-26.24035069141977,FuelLeak,1.0,,,,0.0
2025-10-06_22:43:05,-179.1522222217816,-2.098283512393637,39.83492249317629,-104.7194297031939,-1.552806017862419,5.980748185472816,127.3365903934781,-26.24035058998354,FuelLeak,1.0,,,,0.0
2025-10-06_22:43:07,-179.1522228329987,-1.725125012688094,39.83492249317631,-104.7194297031937,-1.55280604577935,5.980748182629971,127.3365906357136,-26.24035044773464,FuelLeak,1.0,,,,0.0
2025-10-06_22:43:09,-179.1522233375175,-1.794906382794137,39.83492249317634,-104.7194297031935,-1.552806069043459,5.980748182508135,127.3365909091985,-26.24035033084608,FuelLeak,1.0,,,,0.0
2025-10-06_22:43:11,-179.1522239987629,-9.476567686276066,39.83492249317638,-104.7194297031933,-1.552806089981158,5.980748182629971,127.3365911878865,-26.24035022134172,FuelLeak,1.0,,,,0.0
2025-10-06_22:43:13,-179.1522245590484,-2.07889980405134,39.83492249317641,-104.7194297031932,-1.552806113245267,5.980748184538738,127.3365913920748,-26.24035011828019,FuelLeak,1.0,,,,0.0
2025-10-06_22:43:14,-179.1522249929974,-2.16168931916382,39.83492249317644,-104.719429703193,-1.552806150467843,5.980748180193247,127.3365916320451,-26.24034999735313,FuelLeak,1.0,,,,0.0
2025-10-06_22:43:16,-179.1522255988454,-1.789198680097664,39.83492249317647,-104.7194297031928,-1.552806173731951,5.98074818397017,127.3365919215807,-26.24034987379511,FuelLeak,1.0,,,,0.0
2025-10-06_22:43:18,-179.1522262592216,-1.063625519078776,39.83492249317651,-104.7194297031926,-1.552806196996061,5.980748185513427,127.3365921508472,-26.24034975263593,FuelLeak,1.0,,,,0.0
