time,lat,lon,alt_ft,airspeed_kt,heading_deg,pitch_deg,roll_deg,vsi_fps,pred,f_prob,target_icao,cmd_heading,cmd_alt,cmd_throttle
2025-12-06_06:58:55,12.94981617881339,77.67679888418044,2911.160577898657,3.784283066391172,220.4783549547421,0.08740909041982887,-2.752500414131763,0.01308411566639065,Normal,0.465,,,,None
2025-12-06_06:59:00,12.94981617883276,77.6767988845699,2911.159627535348,3.786356391946,220.4782276307451,0.08282469934027734,-2.749879197416741,0.0101062348676219,Normal,0.465,,,,None
2025-12-06_06:59:05,12.94981617955092,77.67679888445814,2911.160546832192,3.786597739661825,220.4774088716674,0.09715807811819074,-2.748199827835356,-0.004494783022741426,Normal,0.465,,,,None
2025-12-06_06:59:09,12.94981618032391,77.6767988855793,2911.160842785011,3.78824583890974,220.4772382241126,0.1036009192085482,-2.747521387315383,-0.005360187653965624,Normal,0.465,,,,None
2025-12-06_06:59:14,12.94981618031523,77.67679888706829,2911.160264528301,3.782234931956447,220.4771877556965,0.1060323973574957,-2.750851125451552,0.01332554735648212,Normal,0.465,,,,None
2025-12-06_06:59:19,12.94981618202064,77.67679888631181,2911.161242300934,3.782981076929071,220.4781988684807,0.09901341890767666,-2.749662057703258,0.008466729817252595,Normal,0.465,,,,None
2025-12-06_06:59:24,12.94981618112296,77.6767988863737,2911.161086916863,3.790691655174319,220.4786498771863,0.09903251737926369,-2.751863002461378,0.008221331086787726,Normal,0.465,,,,None
2025-12-06_06:59:28,12.94981618183333,77.67679888627808,2911.160599159872,3.784394137846415,220.4789421440449,0.100572343561691,-2.749030094551481,0.01469967325398597,Normal,0.465,,,,None
2025-12-06_06:59:33,12.94981618090298,77.67679888656255,2911.161271606252,3.782024994101145,220.4789979360396,0.1028346880009672,-2.749500192585395,-0.0137853682550809,Normal,0.465,,,,None
2025-12-06_06:59:37,12.94981618140034,77.6767988873073,2911.160627856365,3.781283760019102,220.4787596808508,0.1058001534600712,-2.750253426310522,-0.002740272250219412,Normal,0.465,,,,None
2025-12-06_06:59:42,12.94981618195861,77.67679888849744,2911.161363514164,3.788253138866313,220.4780244039815,0.1105099945183256,-2.748066928057896,0.01705822011420672,Normal,0.465,,,,None
2025-12-06_06:59:46,12.94981618296121,77.67679888884012,2911.161417830708,3.781652844356051,220.4783371387764,0.1130203069784508,-2.747701902966015,-0.02553885355589153,Normal,0.465,,,,None
2025-12-06_06:59:51,12.94981618354143,77.67679888935001,2911.160618585138,3.782935561261835,220.4780385290203,0.1094690101446158,-2.749446395616543,-0.02245474114641018,Normal,0.465,,,,None
2025-12-06_06:59:55,12.94981618310004,77.67679888924143,2911.161116733495,3.778691817541013,220.4777185666357,0.1174512539294695,-2.750558232985054,-0.003592983262382326,Normal,0.465,,,,None
2025-12-06_07:00:01,12.9498161850304,77.67679889025295,2911.161464484069,3.785670187396687,220.4770176285419,0.1246871391940154,-2.747047712390978,-0.03299126404961991,Normal,0.465,,,,None
2025-12-06_07:00:06,0.0,0.0,12.9498161849762,77.67679889005804,2911.161161044733,3.78004967414331,220.4774491069003,0.124656363660465,FuelLeak,0.6,,,,None
2025-12-06_07:00:14,-2.752080769170002,0.01065747847387839,0.0,12.94981618432424,77.67679889089446,2911.161890284585,3.788660181545251,0.0,FuelLeak,0.74,,,,None
2025-12-06_07:00:18,220.4775719105827,0.1293373041308907,-2.748452716360303,0.0168774942626416,0.0,12.949816184852,77.67679889178768,2911.1620055958,EngineFailure,0.525,,,,None
2025-12-06_07:00:20,3.786490275921778,220.4773430345377,0.1277446838501708,-2.74955424639706,0.001433883963350357,0.0,12.94981618617691,77.67679889215907,FuelLeak,0.68,,,,None
2025-12-06_07:00:22,2911.162263785486,3.785569358010898,220.4769723782145,0.1267188634392173,-2.750876605342782,0.01433988139685423,0.0,12.9498161857264,FuelLeak,0.68,,,,None
2025-12-06_07:00:24,77.67679889187923,2911.161625607599,3.789999366625971,220.4770403843818,0.1360092351063336,-2.748703373063705,0.0138733392765567,0.0,FuelLeak,0.6,,,,None
2025-12-06_07:00:25,12.9498161857276,77.67679889247043,2911.162206443552,3.786714650075017,220.4772182672293,0.1335620904809432,-2.750246502183804,0.01469148181277627,Normal,0.465,,,,None
2025-12-06_07:00:26,0.0,12.94981618446675,77.67679889160894,2911.161545540757,3.782798571076898,220.4771476840427,0.1249899659232855,-2.751038735740462,FuelLeak,0.85,,,,None
2025-12-06_07:00:27,0.009940064423381204,12.94981618663873,77.67679889278554,2911.162352110358,3.785275481348813,220.4771862923854,0.1404035765393136,-2.747967021325448,FuelLeak,0.85,,,,None
2025-12-06_07:00:28,-0.01736026239141309,0.0,12.9498161857871,77.67679889296652,2911.162054828393,3.78424099320857,220.4771564086342,0.1350285830953386,FuelLeak,0.6,,,,None
2025-12-06_07:00:29,-2.750479132377458,0.01098119550247071,0.0,12.94981618523506,77.67679889259264,2911.162016660831,3.786654272929455,220.4771581076158,FuelLeak,0.74,,,,None
2025-12-06_07:00:31,0.1317687123148151,-2.751364684531457,0.01361021531166854,0.0,12.94981618662756,77.67679889330344,2911.162720248242,3.783416455045883,FuelLeak,0.72,,,,None
2025-12-06_07:00:32,220.4772323898507,0.1392041434848754,-2.749073288476466,-0.01486305072913374,0.0,12.94981618624706,77.67679889298672,2911.162472064064,EngineFailure,0.525,,,,None
2025-12-06_07:00:34,3.788638788790215,220.4770105757723,0.1370507819738201,-2.749092678529166,0.01480619927670001,0.0,12.94981618623344,77.67679889334676,FuelLeak,0.68,,,,None
2025-12-06_07:00:35,2911.162349080348,3.786276266583205,220.47653292215,0.1376581379874585,-2.750200593031249,0.01407141244478947,0.0,12.94981618674228,FuelLeak,0.68,,,,None
2025-12-06_07:00:36,77.67679889361922,2911.162619798848,3.787481427949607,220.4764017117748,0.1405565684670215,-2.749425068902482,0.01546581954469712,0.0,FuelLeak,0.6,,,,None
2025-12-06_07:00:37,12.94981618741367,77.6767988936842,2911.162551708003,3.785104388999532,220.4763637815037,0.1457030259159544,-2.747624017337305,-0.01794357788733482,Normal,0.465,,,,None
2025-12-06_07:00:38,0.0,12.94981618564311,77.6767988931525,2911.162153107538,3.785491978294383,220.4762047863169,0.1339848765439852,-2.751439144271068,FuelLeak,0.85,,,,None
2025-12-06_07:00:40,0.01436533771207282,0.0,12.94981618684192,77.67679889330552,2911.161943532483,3.786643113233262,220.4758992897968,0.1434459536199167,FuelLeak,0.6,,,,None
2025-12-06_07:00:41,-2.74804625420531,0.002686912026693844,12.94981618773537,77.67679889398923,2911.162316940368,3.780559574620368,220.4756108806651,0.1491287420266158,FuelLeak,0.6,,,,None
2025-12-06_07:00:42,-2.746999507367566,-0.03139104355727681,0.0,12.94981618524428,77.676798893847,2911.161933489748,3.784041742683574,220.4749843798423,FuelLeak,0.74,,,,None
2025-12-06_07:00:44,0.1474328752339612,-2.750776692458965,-0.01458767624569743,0.0,12.94981618751462,77.67679889426441,2911.162482380962,3.775838769867732,FuelLeak,0.72,,,,None
2025-12-06_07:00:45,220.4747828014717,0.1470965116767328,-2.747679362349705,-0.0322497484748704,0.0,12.94981618751462,77.67679889426441,2911.162482380962,EngineFailure,0.525,,,,None
2025-12-06_07:00:46,3.775838769867732,220.4747828014717,0.1470965116767328,-2.747679362349705,-0.0322497484748704,0.0,12.94981618733169,77.67679889390025,FuelLeak,0.68,,,,None
2025-12-06_07:00:47,2911.161861960076,3.781984163753978,220.4746704364414,0.1479471875599688,-2.747429402534825,-0.006478716516556762,0.0,12.94981618709768,FuelLeak,0.68,,,,None
2025-12-06_07:00:48,77.67679889446916,2911.162930130137,3.789363670265989,220.4743902804277,0.146489051299088,-2.750523735779532,0.01447079096892186,0.0,FuelLeak,0.6,,,,None
2025-12-06_07:00:49,12.94981618692983,77.67679889373875,2911.162876794116,3.790133483034762,220.4741804093975,0.1433332501164424,-2.748278270519331,0.01699896244304031,Normal,0.465,,,,None
2025-12-06_07:00:50,0.0,12.94981618744468,77.67679889435698,2911.162392067114,3.780395277046343,220.4739081866988,0.1477682289119191,-2.747932759341503,FuelLeak,0.85,,,,None
2025-12-06_07:00:52,-0.001313582687314811,0.0,12.9498161876047,77.67679889449911,2911.162237175679,3.778678648165959,220.4735129554378,0.1491324459175891,FuelLeak,0.6,,,,None
2025-12-06_07:00:53,-2.747679171820383,-0.006029079021957983,0.0,12.94981618797052,77.67679889452018,2911.162585586193,3.778995142897421,220.4734154238536,FuelLeak,0.74,,,,None
2025-12-06_07:00:54,0.1515010051332867,-2.746757108717921,-0.02681472231298468,12.9498161868693,77.67679889420606,2911.162315996921,3.783248660764938,220.4734422769683,FuelLeak,0.74,,,,None
2025-12-06_07:00:55,0.1444038993867107,-2.749566293780154,0.01012326711241945,0.0,12.94981618717965,77.67679889381151,2911.161896242519,3.785424703137146,FuelLeak,0.72,,,,None
2025-12-06_07:00:57,220.4735038414642,0.14805893893197,-2.747670625364734,0.001219387905690048,0.0,12.9498161879799,77.67679889472427,2911.16302524461,EngineFailure,0.525,,,,None
2025-12-06_07:00:58,3.782761329165337,220.473543786076,0.1511291535981439,-2.747959448215881,-0.01658360179286112,0.0,12.9498161876608,77.67679889418136,FuelLeak,0.68,,,,None
2025-12-06_07:00:59,2911.162298481652,3.785071829594011,220.4735948899744,0.150658376257853,-2.747038128568226,0.0001769661733032185,0.0,12.94981618710313,FuelLeak,0.68,,,,None
2025-12-06_07:01:00,77.67679889419742,2911.162630217914,3.788014054864698,220.473627785099,0.146485595698378,-2.749282059437735,0.01354615036688287,0.0,FuelLeak,0.6,,,,None
2025-12-06_07:01:01,12.94981618773006,77.6767988945308,2911.16252643651,3.775651366217789,220.4736750891624,0.149681204276629,-2.747427981611562,-0.03277391385729,Normal,0.465,,,,None
2025-12-06_07:01:03,0.0,12.94981618765682,77.67679889418262,2911.162298565302,3.785072913500287,220.4737163997269,0.1506497391638435,-2.74707179411949,FuelLeak,0.85,,,,None
2025-12-06_07:01:04,0.0001769306716937117,0.0,12.94981618702615,77.67679889428693,2911.16251481379,3.785110523912508,220.4737330119171,0.1454360158357823,FuelLeak,0.6,,,,None
2025-12-06_07:01:06,-2.749531297748097,0.01259576560411242,0.0,12.94981618692865,77.67679889424143,2911.162185322081,3.781013117505128,220.4737781406734,FuelLeak,0.74,,,,None
2025-12-06_07:01:07,0.1446991499108055,-2.749243981168197,0.006288810149419593,0.0,12.94981618724458,77.67679889424102,2911.162485606103,3.784102664804255,FuelLeak,0.72,,,,None
2025-12-06_07:01:08,220.4737902890233,0.1460865243300633,-2.748331987166506,0.01030045517889988,12.94981618729821,77.67679889437858,2911.162558562627,3.786981959582187,FuelLeak,0.72,,,,None
2025-12-06_07:01:10,220.473762783597,0.1480332857499564,-2.749269357109148,0.01143484906264963,0.0,12.94981618713501,77.67679889473577,2911.162779397944,EngineFailure,0.525,,,,None
2025-12-06_07:01:12,3.789289234614495,220.4735771388289,0.148560015250212,-2.751456568770406,0.0156172868392959,0.0,12.94981618682646,77.67679889379332,FuelLeak,0.68,,,,None
2025-12-06_07:01:13,2911.162112565382,3.785614870883797,220.4736051747452,0.1455188561095357,-2.74886310412224,0.003594659661032553,0.0,12.94981618757764,FuelLeak,0.68,,,,None
2025-12-06_07:01:14,77.67679889445343,2911.162886613716,3.78914305100486,220.4736699694471,0.1493343443848738,-2.748508454928311,0.0148285996313615,0.0,FuelLeak,0.6,,,,None
2025-12-06_07:01:17,12.94981618763937,77.67679889400728,2911.162409066551,3.787023719722984,220.4736951033148,0.1448249471442539,-2.749673495454637,0.01154290470933819,Normal,0.465,,,,None
2025-12-06_07:01:18,0.0,12.94981618738846,77.67679889446097,2911.162755107006,3.786635480985082,220.4737329347286,0.1477124251306146,-2.748943804547776,FuelLeak,0.85,,,,None
2025-12-06_07:01:19,0.01421243466484402,0.0,12.94981618795417,77.67679889458309,2911.162581087694,3.778970199296125,220.4738009073934,0.1517486681238053,FuelLeak,0.6,,,,None
2025-12-06_07:01:20,-2.747059603541587,-0.02678191441039943,0.0,12.94981618691014,77.67679889424335,2911.162185061835,3.781012960824905,220.4738079749029,FuelLeak,0.74,,,,None
2025-12-06_07:01:21,0.1446959146958086,-2.749248257665179,0.006288777198967384,0.0,12.94981618708711,77.6767988942913,2911.162295697931,3.782357278827935,FuelLeak,0.72,,,,None
2025-12-06_07:01:23,220.4736876896553,0.1459304874265412,-2.748955549254676,0.006396203567494691,0.0,12.94981618677419,77.67679889402419,2911.162409628862,EngineFailure,0.525,,,,None
2025-12-06_07:01:24,3.787027044228555,220.4736045670638,0.144935530451359,-2.749677542994109,0.01154085036608769,12.94981618680912,77.67679889379733,2911.162112560733,EngineFailure,0.525,,,,None
2025-12-06_07:01:25,3.785618730705961,220.4736498386455,0.1455288286478475,-2.748874247551778,0.003593891401412982,0.0,12.94981618787935,77.67679889441364,FuelLeak,0.68,,,,None
2025-12-06_07:01:26,2911.162650340384,3.784435888034206,220.4737340277984,0.1520228438382535,-2.747376263992013,-0.0189639070848733,0.0,12.94981618737089,FuelLeak,0.68,,,,None
2025-12-06_07:01:27,77.67679889446248,2911.162754809584,3.786634262181885,220.47373545108,0.1477111271557751,-2.748940556929763,0.01421245266379925,0.0,FuelLeak,0.6,,,,None
2025-12-06_07:01:28,12.94981618682491,77.67679889421474,2911.162315732028,3.783246658959359,220.4737691388331,0.1443928286143504,-2.749653376110631,0.01012304828020954,Normal,0.465,,,,None
2025-12-06_07:01:30,0.0,12.94981618680357,77.67679889379818,2911.162112602559,3.785616936432591,220.4738039983475,0.1455129392155665,-2.748915552746926,FuelLeak,0.85,,,,None
2025-12-06_07:01:31,0.003594009057432391,0.0,12.94981618708219,77.6767988942149,2911.162525869502,3.786841156375578,220.4737032612166,0.1465291220797491,FuelLeak,0.6,,,,None
2025-12-06_07:01:33,-2.749176749135883,0.0116300276971707,0.0,12.94981618661792,77.67679889379677,2911.162238397821,3.78622253101342,220.4735926912219,FuelLeak,0.74,,,,None
2025-12-06_07:01:34,0.1440174861153144,-2.749312376597603,0.008420607061456762,0.0,12.94981618753986,77.67679889445222,2911.162885809745,3.789143378500437,FuelLeak,0.72,,,,None
2025-12-06_07:01:35,220.4736751943129,0.1493041384291512,-2.748493605914424,0.01482922693009158,0.0,12.94981618767729,77.67679889453565,2911.162525586066,EngineFailure,0.525,,,,None
2025-12-06_07:01:36,3.775650989432518,220.4736868911561,0.149678099057894,-2.747419757991755,-0.03277390597911135,0.0,12.94981618711988,77.67679889381857,FuelLeak,0.68,,,,None
2025-12-06_07:01:38,2911.161895531491,3.785426250724433,220.4737306506752,0.1480404846950335,-2.747721855958722,0.001219345421852782,12.94981618704586,77.67679889420353,FuelLeak,0.68,,,,None
2025-12-06_07:01:40,2911.162629437179,3.788014685492775,220.4737750853925,0.1464720095632165,-2.749311045250115,0.01354619595667392,0.0,12.94981618760033,FuelLeak,0.68,,,,None
2025-12-06_07:01:41,77.67679889418848,2911.162297775271,3.78507194933644,220.4738403277306,0.1506377875771786,-2.747094273369044,0.0001769130993553593,0.0,FuelLeak,0.6,,,,None
2025-12-06_07:01:42,12.94981618590928,77.67679889370706,2911.162243625878,3.785323979631901,220.473744326632,0.1387934813251178,-2.751133798629082,0.01379043305296082,Normal,0.465,,,,None
2025-12-06_07:01:43,0.0,12.94981618699514,77.6767988941731,2911.162623804759,3.787904440812204,220.4736034194829,0.1462027164019479,-2.749279949455396,FuelLeak,0.85,,,,None
2025-12-06_07:01:44,0.01363292132131776,0.0,12.94981618733942,77.67679889446548,2911.162754047439,3.786628961624606,220.4736431244608,0.1477214969421198,FuelLeak,0.6,,,,None
2025-12-06_07:01:46,-2.748911032990857,0.01421295723004397,0.0,12.94981618695905,77.67679889429279,2911.162513684513,3.785110557409244,220.4736636970382,FuelLeak,0.74,,,,None
2025-12-06_07:01:47,0.1454405756944845,-2.749497245742909,0.01259566776554068,0.0,12.94981618716228,77.67679889439374,2911.162268404883,3.778362750226771,FuelLeak,0.72,,,,None
2025-12-06_07:01:48,220.4736896001015,0.1464338390977028,-2.748281727634125,-0.001450150544291044,0.0,12.9498161876572,77.67679889453778,2911.162525349057,EngineFailure,0.525,,,,None
2025-12-06_07:01:49,3.77565077559705,220.4737692809253,0.1496704325504977,-2.747438343744328,-0.0327739168952093,0.0,12.94981618715904,77.67679889439496,FuelLeak,0.68,,,,None
2025-12-06_07:01:50,2911.162268488534,3.778361846256702,220.4737923929939,0.1464276668662691,-2.748310486351457,-0.001450166322250923,0.0,12.94981618676766,FuelLeak,0.68,,,,None
2025-12-06_07:01:52,77.67679889380146,2911.162112058832,3.785617634636977,220.4738424884239,0.1455083581748424,-2.748918444430562,0.003594000754380015,12.94981618651507,FuelLeak,0.6,,,,None
2025-12-06_07:01:53,77.67679889388141,2911.162642672389,3.788754415729163,220.4738226404847,0.1425450215618715,-2.749780328347668,0.01592527080224355,0.0,FuelLeak,0.6,,,,None
2025-12-06_07:01:54,12.94981618710899,77.67679889441155,2911.162258199611,3.778235049422645,220.473603175883,0.1463544436840274,-2.748487320374333,-0.001318122644764731,Normal,0.465,,,,None
2025-12-06_07:01:55,0.0,12.94981618764258,77.67679889453748,2911.162524800685,3.775645630483019,220.4736648183715,0.1496719055706377,-2.747405735762033,FuelLeak,0.85,,,,None
2025-12-06_07:01:56,-0.03277336576323117,0.0,12.94981618788779,77.67679889473413,2911.163023943386,3.782761940314584,220.4737112085184,0.1511169366254703,FuelLeak,0.6,,,,None
2025-12-06_07:01:58,-2.747987710658304,-0.01658372136617539,0.0,12.94981618731881,77.67679889446686,2911.162753931258,3.786635263664694,220.4737396134001,FuelLeak,0.74,,,,None
2025-12-06_07:02:00,0.1477082492793918,-2.748930116347267,0.01421252145071245,0.0,12.9498161878843,77.67679889473433,2911.163023957326,3.782761476591135,FuelLeak,0.72,,,,None
2025-12-06_07:02:01,220.4738046349077,0.1511055281295556,-2.748012101093706,-0.01658356176789846,0.0,12.9498161878234,77.67679889441912,2911.162649536412,EngineFailure,0.525,,,,None
2025-12-06_07:02:02,3.784435018889151,220.4738549973187,0.152011355575225,-2.747398090445328,-0.01896390809134331,0.0,12.94981618593033,77.67679889357076,FuelLeak,0.68,,,,None
2025-12-06_07:02:03,2911.162426010208,3.786440615920567,220.4737804007801,0.1384037639107508,-2.750373984856976,0.01564325153789401,0.0,12.94981618740351,FuelLeak,0.68,,,,None
2025-12-06_07:02:04,77.6767988939317,2911.161967674771,3.781229063512344,220.4738283895549,0.1486361710396373,-2.746517593651576,-0.006793432848649253,0.0,FuelLeak,0.6,,,,None
2025-12-06_07:02:06,12.94981618748811,77.67679889445347,2911.162885730739,3.78917723930064,220.4736704837944,0.1492884454221868,-2.748466932583777,0.01482333950959133,Normal,0.465,,,,None
2025-12-06_07:02:07,12.94981618780882,77.67679889441553,2911.162648964805,3.78443557194064,220.4737038359526,0.1519985410403833,-2.747345411209893,-0.01896337748566451,Normal,0.465,,,,None
2025-12-06_07:02:08,0.0,12.94981618675731,77.67679889421973,2911.162314533041,3.783246202164896,220.4737156747163,0.1443921123666472,-2.749622821856609,FuelLeak,0.85,,,,None
2025-12-06_07:02:09,0.0101230681453487,0.0,12.94981618786844,77.67679889458995,2911.162579605228,3.77897048133157,220.4737686654889,0.1517462136515929,FuelLeak,0.6,,,,None
2025-12-06_07:02:10,-2.747031202637484,-0.02678196167136481,0.0,12.94981618675506,77.6767988942206,2911.16231457022,3.783247626028043,220.473785771239,FuelLeak,0.74,,,,None
2025-12-06_07:02:11,0.1443880425958114,-2.749642511631726,0.01012309843039869,0.0,12.94981618748316,77.67679889446214,2911.162885256724,3.789143817276519,FuelLeak,0.72,,,,None
2025-12-06_07:02:13,220.4738899980455,0.1493092063196735,-2.748548499040759,0.01482866763675585,0.0,12.94981618730092,77.67679889452145,2911.162353216443,EngineFailure,0.525,,,,None
2025-12-06_07:02:14,3.780151722581694,220.4737751128738,0.148176095549635,-2.748516781613273,-0.001427293299239289,0.0,12.94981618756927,77.6767988944582,FuelLeak,0.68,,,,None
2025-12-06_07:02:15,2911.162524103599,3.775663350182745,220.473646332815,0.1491918566896717,-2.747183619399449,-0.03277263802830407,0.0,12.94981618668006,FuelLeak,0.68,,,,None
2025-12-06_07:02:16,77.6767988940239,2911.162407495788,3.787014608264067,220.4736661511596,0.1448739758004902,-2.749661094646245,0.01154279104474221,0.0,FuelLeak,0.6,,,,None
2025-12-06_07:02:17,12.94981618658261,77.67679889388222,2911.162237491612,3.786196979012415,220.4737091848171,0.1444682626306144,-2.749531124331631,0.008425900684803455,Normal,0.465,,,,None
2025-12-06_07:02:18,12.94981618658111,77.67679889388234,2911.162237505554,3.786199008190475,220.4737512389835,0.1444634185368268,-2.749542051537307,0.008425877992420061,Normal,0.465,,,,None
2025-12-06_07:02:20,12.94981618657973,77.67679889388276,2911.162237519496,3.786198468291034,220.4737932932213,0.144460339855104,-2.749553672523324,0.008425937258524,Normal,0.465,,,,None
2025-12-06_07:02:22,0.0,12.9498161870466,77.67679889382542,2911.161894430098,3.785425224731688,220.4738550558372,0.1480279508330545,-2.747740826585794,FuelLeak,0.85,,,,None
2025-12-06_07:02:23,0.00121924791374473,0.0,12.94981618525525,77.67679889327806,2911.161850588204,3.784452281155946,220.473794577057,0.1358530634839336,FuelLeak,0.6,,,,None
2025-12-06_07:02:25,-2.751680389728435,0.01029269064602654,0.0,12.9498161872144,77.67679889414505,2911.162124741097,3.784191193740087,220.4737860303505,FuelLeak,0.74,,,,None
2025-12-06_07:02:27,0.1490249114530165,-2.748000822007299,-0.0003722918444690871,0.0,12.9498161877363,77.67679889433846,2911.162648114361,3.784434970624703,FuelLeak,0.72,,,,None
2025-12-06_07:02:28,220.4736804610583,0.1515304928148312,-2.747130480170222,-0.01895678189861159,0.0,12.94981618670537,77.67679889380875,2911.16211072508,EngineFailure,0.525,,,,None
2025-12-06_07:02:29,3.785610596317678,220.4736820856857,0.145537144357045,-2.748867464661759,0.003594307646313498,0.0,12.94981618679149,77.67679889425251,FuelLeak,0.68,,,,None
2025-12-06_07:02:31,2911.162182951994,3.781012792453079,220.4737259366671,0.1446955453603014,-2.749198633945304,0.006288825672047815,0.0,12.94981618688623,FuelLeak,0.68,,,,None
2025-12-06_07:02:32,77.67679889429884,2911.162512508765,3.785110513645308,220.4737649066746,0.1454262686383488,-2.749509046480464,0.01259580041222384,0.0,FuelLeak,0.6,,,,None
2025-12-06_07:02:34,12.94981618656205,77.67679889388425,2911.162237231368,3.786198197892225,220.4738057833597,0.1444584778170514,-2.749553310701344,0.008425903870334723,Normal,0.465,,,,None
2025-12-06_07:02:35,12.94981618777166,77.67679889442326,2911.162648644145,3.784435321633025,220.4738503735819,0.1520089124039377,-2.74738524929575,-0.01896391463625299,Normal,0.465,,,,None
2025-12-06_07:02:36,12.9498161865607,77.67679889388471,2911.162237268545,3.786198153627649,220.4738478264981,0.1444555313760612,-2.749564968730882,0.0084258987068887,Normal,0.465,,,,None
2025-12-06_07:02:38,12.94981618776938,77.67679889442401,2911.162648695264,3.784435328115351,220.4739204402186,0.1520039074318552,-2.747404638968872,-0.01896391397159365,Normal,0.465,,,,None
2025-12-06_07:02:39,0.0,12.94981618739595,77.67679889454688,2911.162754149682,3.787966756754318,220.4738202922333,0.149324789000666,-2.749002784617338,FuelLeak,0.85,,,,None
2025-12-06_07:02:40,0.01350110110198828,0.0,12.94981618739595,77.67679889454688,2911.162754149682,3.787966756754318,220.4738202922333,0.149324789000666,FuelLeak,0.6,,,,None
2025-12-06_07:02:42,-2.749002784617338,0.01350110110198828,0.0,12.94981618772673,77.67679889449587,2911.162634051907,3.784199147159796,220.4736868997973,FuelLeak,0.74,,,,None
2025-12-06_07:02:43,0.1521118646447854,-2.747773096343758,-0.01881219305104327,0.0,12.94981618655791,77.67679889389942,2911.1622375102,3.78619248474256,FuelLeak,0.72,,,,None
2025-12-06_07:02:45,220.4736784428439,0.14456334910692,-2.749546113482352,0.00842478725251764,0.0,12.9498161866392,77.67679889401856,2911.162406761525,EngineFailure,0.525,,,,None
2025-12-06_07:02:47,3.787025141524466,220.4737143253973,0.1448145133469952,-2.749646846353015,0.01154278101866716,0.0,12.94981618749856,77.67679889419604,FuelLeak,0.68,,,,None
2025-12-06_07:02:49,2911.162295958207,3.785072202682145,220.4737748103391,0.1506360623922447,-2.747052648095714,0.0001768779502823303,0.0,12.94981618663701,FuelLeak,0.68,,,,None
2025-12-06_07:02:52,77.67679889401958,2911.162406770819,3.787023728702244,220.4737844237652,0.1448111861788071,-2.749667265465102,0.01154292405545096,0.0,FuelLeak,0.6,,,,None
2025-12-06_07:02:54,12.94981618743162,77.67679889446622,2911.162884364456,3.789143195682398,220.4738807486706,0.149307076288753,-2.748534373632994,0.01482872234315888,Normal,0.465,,,,None
2025-12-06_07:02:56,12.94981618749427,77.67679889419759,2911.162296055797,3.785072617994521,220.4739102937722,0.1506274453632932,-2.747090511190177,0.0001768705807178468,Normal,0.465,,,,None
2025-12-06_07:02:57,12.94981618529936,77.67679889342425,2911.161940790515,3.783380628584733,220.4738129849115,0.1356122234663802,-2.751683312327522,0.01176620889541548,Normal,0.465,,,,None
2025-12-06_07:02:59,12.94981618720559,77.67679889449538,2911.162632690237,3.785817323633741,220.4737940946191,0.1476988894497685,-2.749127922378781,0.01264810263198135,Normal,0.465,,,,None
2025-12-06_07:03:00,12.94981618756198,77.67679889455675,2911.162523903769,3.775642206664647,220.4737088247403,0.1497411015086078,-2.747423203064494,-0.03277460295857593,Normal,0.465,,,,None
2025-12-06_07:03:01,0.0,12.94981618756198,77.67679889455675,2911.162523903769,3.775642206664647,220.4737088247403,0.1497411015086078,-2.747423203064494,FuelLeak,0.85,,,,None
2025-12-06_07:03:03,-0.03277460295857593,0.0,12.94981618685316,77.67679889430175,2911.162511951096,3.785110009204959,220.4737292089901,0.1454304272938852,FuelLeak,0.6,,,,None
2025-12-06_07:03:04,-2.749492256624382,0.01259567138985858,0.0,12.9498161875531,77.67679889454611,2911.162523578463,3.775651437367606,220.4737787375588,FuelLeak,0.74,,,,None
2025-12-06_07:03:06,0.149663810690584,-2.747417652630682,-0.03277401398656323,0.0,12.94981618685052,77.67679889430192,2911.162511937155,3.785109420380978,FuelLeak,0.72,,,,None
2025-12-06_07:03:08,220.4737992837871,0.1454217604182872,-2.749510807438205,0.012595850188383,0.0,12.94981618755088,77.67679889454693,2911.162523629583,EngineFailure,0.525,,,,None
2025-12-06_07:03:09,3.775651336754301,220.473848817207,0.1496593617999072,-2.747437272633416,-0.03277400878012496,0.0,12.94981618755088,77.67679889454693,FuelLeak,0.68,,,,None
2025-12-06_07:03:11,2911.162523629583,3.775651336754301,220.473848817207,0.1496593617999072,-2.747437272633416,-0.03277400878012496,0.0,12.94981618684826,FuelLeak,0.68,,,,None
2025-12-06_07:03:12,77.67679889430269,2911.162511974333,3.78510943051984,220.4738693619969,0.1454169185160044,-2.749530291389406,0.01259586950537704,0.0,FuelLeak,0.6,,,,None
2025-12-06_07:03:14,12.94981618721897,77.6767988941877,2911.162006595126,3.774907242631662,220.4738679736571,0.1484287148069849,-2.747368132548207,-0.03551392772855697,Normal,0.465,,,,None
2025-12-06_07:03:16,12.94981618721897,77.6767988941877,2911.162006595126,3.774907242631662,220.4738679736571,0.1484287148069849,-2.747368132548207,-0.03551392772855697,Normal,0.465,,,,None
2025-12-06_07:03:18,12.94981618721897,77.6767988941877,2911.162006595126,3.774907242631662,220.4738679736571,0.1484287148069849,-2.747368132548207,-0.03551392772855697,Normal,0.465,,,,None
2025-12-06_07:03:20,12.94981618753125,77.67679889457152,2911.162414317952,3.778080078364412,220.4737978918036,0.1505042904664839,-2.74787896314323,-0.02747606179166759,Normal,0.465,,,,None
2025-12-06_07:03:22,12.94981618749977,77.67679889458039,2911.162511658371,3.775520316527667,220.4736783346037,0.1496527431508205,-2.747696470531312,-0.03262920141748939,Normal,0.465,,,,None
2025-12-06_07:03:23,12.94981618749977,77.67679889458039,2911.162511658371,3.775520316527667,220.4736783346037,0.1496527431508205,-2.747696470531312,-0.03262920141748939,Normal,0.465,,,,None
2025-12-06_07:03:24,0.0,12.94981618684493,77.6767988943165,2911.16251216022,3.785102649604485,220.4737000089654,0.1455190020539233,-2.749509814066861,FuelLeak,0.85,,,,None
2025-12-06_07:03:25,0.012594847200957,0.0,12.94981618684493,77.6767988943165,2911.16251216022,3.785102649604485,220.4737000089654,0.1455190020539233,FuelLeak,0.6,,,,None
2025-12-06_07:03:27,-2.749509814066861,0.012594847200957,0.0,12.94981618753705,77.67679889454753,2911.162523313571,3.77565236501701,220.4737492290605,FuelLeak,0.74,,,,None
2025-12-06_07:03:28,0.1496672822423871,-2.747405971406155,-0.0327741923637699,0.0,12.94981618683413,77.67679889430292,2911.162511621143,3.785109511438224,FuelLeak,0.72,,,,None
2025-12-06_07:03:30,220.4737697587614,0.1454222558404698,-2.749498576139163,0.01259584568467844,0.0,12.94981618753458,77.676798894548,2911.162523304276,EngineFailure,0.525,,,,None
2025-12-06_07:03:31,3.775651328777287,220.473819300698,0.1496605780276909,-2.747425295617961,-0.0327739973208335,0.0,12.94981618753458,77.676798894548,FuelLeak,0.68,,,,None
2025-12-06_07:03:33,2911.162523304276,3.775651328777287,220.473819300698,0.1496605780276909,-2.747425295617961,-0.0327739973208335,0.0,12.94981618683194,FuelLeak,0.68,,,,None
2025-12-06_07:03:35,77.67679889430374,2911.162511658321,3.78510942788887,220.4738398419279,0.1454180331688059,-2.749518285612437,0.01259586869434342,0.0,FuelLeak,0.6,,,,None
2025-12-06_07:03:36,12.94981618683194,77.67679889430374,2911.162511658321,3.78510942788887,220.4738398419279,0.1454180331688059,-2.749518285612437,0.01259586869434342,Normal,0.465,,,,None
2025-12-06_07:03:38,12.94981618753233,77.67679889454872,2911.162523350748,3.775651334116739,220.4738893844065,0.1496556240253316,-2.747444719926968,-0.0327739895846306,Normal,0.465,,,,None
2025-12-06_07:03:39,12.94981618753233,77.67679889454872,2911.162523350748,3.775651334116739,220.4738893844065,0.1496556240253316,-2.747444719926968,-0.0327739895846306,Normal,0.465,,,,None
2025-12-06_07:03:40,12.94981618753233,77.67679889454872,2911.162523350748,3.775651334116739,220.4738893844065,0.1496556240253316,-2.747444719926968,-0.0327739895846306,Normal,0.465,,,,None
2025-12-06_07:03:42,12.94981618682967,77.67679889430447,2911.162511714087,3.78510942930061,220.4739099323767,0.1454130524301657,-2.749537705137256,0.01259583277237171,Normal,0.465,,,,None
2025-12-06_07:03:43,12.94981618761636,77.67679889465184,2911.162434793558,3.778191906262834,220.4738543597269,0.1512827355330808,-2.747852601580841,-0.02760683475996828,Normal,0.465,,,,None
2025-12-06_07:03:44,12.9498161872125,77.67679889477564,2911.162448377317,3.780834770223593,220.4736929869659,0.1491139593967485,-2.749557290006199,-0.0002568563734365734,Normal,0.465,,,,None
2025-12-06_07:03:46,0.0,12.94981618718037,77.6767988944377,2911.162751909711,3.786677208834147,220.4737002365433,0.1474737935355662,-2.748792759700962,FuelLeak,0.85,,,,None
2025-12-06_07:03:47,0.01420357822556833,0.0,12.94981618681767,77.67679889430396,2911.162511342309,3.78511161531559,220.4737449117257,0.1454228033468521,FuelLeak,0.6,,,,None
2025-12-06_07:03:49,-2.749487255959945,0.01259575593275272,0.0,12.94981618681767,77.67679889430396,2911.162511342309,3.78511161531559,220.4737449117257,FuelLeak,0.74,,,,None
2025-12-06_07:03:50,0.1454228033468521,-2.749487255959945,0.01259575593275272,0.0,12.94981618681545,77.67679889430488,2911.162511351604,3.785109418391708,FuelLeak,0.72,,,,None
2025-12-06_07:03:51,220.47381500251,0.145418924015573,-2.749507518323164,0.01259586177933855,0.0,12.94981618751584,77.67679889454986,2911.162523044031,EngineFailure,0.525,,,,None
2025-12-06_07:03:53,3.775651329999572,220.4738645436173,0.1496565485377168,-2.747433976093893,-0.03277400922069578,0.0,12.94981618751584,77.67679889454986,FuelLeak,0.68,,,,None
2025-12-06_07:03:54,2911.162523044031,3.775651329999572,220.4738645436173,0.1496565485377168,-2.747433976093893,-0.03277400922069578,0.0,12.94981618681322,FuelLeak,0.68,,,,None
2025-12-06_07:03:55,77.67679889430558,2911.162511393429,3.78510943148239,220.473885091838,0.1454139593509751,-2.749526960315533,0.01259586360708174,0.0,FuelLeak,0.6,,,,None
2025-12-06_07:03:57,12.94981618681322,77.67679889430558,2911.162511393429,3.78510943148239,220.473885091838,0.1454139593509751,-2.749526960315533,0.01259586360708174,Normal,0.465,,,,None
2025-12-06_07:03:58,12.94981618751356,77.67679889455057,2911.162523081209,3.775651328777287,220.4739346239003,0.1496515754192344,-2.747453380171976,-0.03277396558012517,Normal,0.465,,,,None
2025-12-06_07:04:00,12.94981618725259,77.67679889461607,2911.162646092789,3.78586197349773,220.4738654293635,0.1486086181337899,-2.749275880968041,0.01254749279761052,Normal,0.465,,,,None
2025-12-06_07:04:01,12.94981618733416,77.67679889465693,2911.162302399225,3.777328186800352,220.4736875242887,0.1503401920764285,-2.74877869136622,-0.02816173477475432,Normal,0.465,,,,None
2025-12-06_07:04:02,12.94981618656741,77.67679889402174,2911.162405437066,3.787025858133248,220.4737457126599,0.1447912721232959,-2.749634982109039,0.01154318264544017,Normal,0.465,,,,None
2025-12-06_07:04:03,12.94981618661454,77.6767988938136,2911.162109344852,3.785617728761745,220.4737727504642,0.1455075679374628,-2.748865385988069,0.00359399317611958,Normal,0.465,,,,None
2025-12-06_07:04:05,12.94981618647579,77.67679889389116,2911.162235748901,3.786197060164162,220.4738030126651,0.1444543309282948,-2.749533374065305,0.008425942129305346,Normal,0.465,,,,None
2025-12-06_07:04:06,12.94981618768447,77.6767988944304,2911.162647184914,3.784435322339021,220.4738756403748,0.1520026405199548,-2.747373014359817,-0.01896392227304554,Normal,0.465,,,,None
2025-12-06_07:04:07,0.0,12.94981618647351,77.67679889389186,2911.162235800021,3.786198151959708,220.4738731019078,0.1444492675170007,-2.749552765231631,FuelLeak,0.85,,,,None
2025-12-06_07:04:08,0.008425912636276886,0.0,12.94981618768221,77.67679889443114,2911.162647217446,3.784435317910501,220.4739457249578,0.1519976720862131,FuelLeak,0.6,,,,None
2025-12-06_07:04:09,-2.747392438245608,-0.01896400193483725,0.0,12.94981618813037,77.67679889419044,2911.162683145044,3.78203627371174,220.4740072339103,FuelLeak,0.74,,,,None
2025-12-06_07:04:11,0.1534774948312172,-2.744386544283587,-0.03055728363949786,0.0,12.94981618722917,77.67679889442883,2911.162746602603,3.788004575681677,FuelLeak,0.72,,,,None
2025-12-06_07:04:12,220.4738317538758,0.1484536366231664,-2.748723221710074,0.01354954426893714,0.0,12.94981618722917,77.67679889442883,2911.162746602603,EngineFailure,0.525,,,,None
2025-12-06_07:04:13,3.788004575681677,220.4738317538758,0.1484536366231664,-2.748723221710074,0.01354954426893714,0.0,12.94981618722917,77.67679889442883,FuelLeak,0.68,,,,None
2025-12-06_07:04:14,2911.162746602603,3.788004575681677,220.4738317538758,0.1484536366231664,-2.748723221710074,0.01354954426893714,0.0,12.94981618642017,FuelLeak,0.68,,,,None
2025-12-06_07:04:15,77.67679889381579,2911.162234094491,3.78616620665783,220.4737016888946,0.1439974951117386,-2.74933084755078,0.00845464116450949,0.0,FuelLeak,0.6,,,,None
2025-12-06_07:04:17,12.94981618642017,77.67679889381579,2911.162234094491,3.78616620665783,220.4737016888946,0.1439974951117386,-2.74933084755078,-0.01896390816643599,Normal,0.465,,,,None
2025-12-06_07:04:18,12.94981618767358,77.67679889443659,2911.16264689214,3.784426397000467,220.4737761189602,0.1520449957253437,-2.747355410674494,-0.01896390816643599,Normal,0.465,,,,None
2025-12-06_07:04:19,12.94981618645997,77.67679889389296,2911.162235479363,3.786198194043131,220.4737735124617,0.1444603284966638,-2.749522780031644,0.008425759336998335,Normal,0.465,,,,None
2025-12-06_07:04:20,12.94981618766815,77.67679889443146,2911.162646864256,3.784435396982037,220.4738461195282,0.1520035928558028,-2.747360925256329,-0.01896392760907819,Normal,0.465,,,,None
2025-12-06_07:04:22,12.94981618692465,77.6767988938354,2911.161892371375,3.785424821520955,220.4738866650382,0.1480193211945964,-2.747722674217822,0.001219159287609238,Normal,0.465,,,,None
2025-12-06_07:04:23,12.94981618685125,77.67679889422017,2911.162626263122,3.788013202570844,220.4739124184726,0.1464522563200149,-2.749306711602399,0.0135462682304833,Normal,0.465,,,,None
2025-12-06_07:04:24,12.94981618659184,77.67679889381623,2911.162109154313,3.785616893444447,220.4739347914434,0.1454928651698376,-2.748905558784404,0.003593962378765935,Normal,0.465,,,,None
2025-12-06_07:04:25,12.94981618662708,77.67679889398568,2911.162470168032,3.786916189179789,220.4739196418179,0.1444979331948694,-2.74901422043096,0.01219382323297917,Normal,0.465,,,,None
2025-12-06_07:04:27,12.94981618711246,77.67679889440956,2911.162750812966,3.786669285763576,220.4737232169694,0.1472818333412009,-2.748704293752979,0.01420426153730723,Normal,0.465,,,,None
2025-12-06_07:04:28,0.0,12.94981618658217,77.67679889381911,2911.162108680298,3.785610064996126,220.4737511108252,0.1455258190857265,-2.748859716175835,FuelLeak,0.85,,,,None
2025-12-06_07:04:29,0.003594324419784525,0.0,12.94981618676425,77.67679889430879,2911.162510431453,3.785109204192203,220.4737965386348,0.1454174928325706,FuelLeak,0.6,,,,None
2025-12-06_07:04:30,-2.749490999372444,0.01259594337016821,0.0,12.94981618746465,77.67679889455377,2911.162522133175,3.77565131295192,220.4738460831898,FuelLeak,0.74,,,,None
2025-12-06_07:04:31,0.1496552863530283,-2.747417403066515,-0.03277401117597455,0.0,12.94981618764865,77.67679889443355,2911.162646599363,3.784436702175587,FuelLeak,0.72,,,,None
2025-12-06_07:04:32,220.4739147154798,0.1519981441719539,-2.747376210808422,-0.0189640085870817,0.0,12.9498161865955,77.67679889423425,2911.162311977066,EngineFailure,0.525,,,,None
2025-12-06_07:04:34,3.783246144511847,220.4739124537352,0.1443708949865606,-2.749643045709619,0.01012312486854739,0.0,12.9498161877066,77.67679889460439,FuelLeak,0.68,,,,None
2025-12-06_07:04:35,2911.162577053899,3.778970467962524,220.4739654216461,0.151724321177453,-2.747051219762367,-0.02678200750604488,0.0,12.94981618722896,FuelLeak,0.68,,,,None
2025-12-06_07:04:36,77.67679889452627,2911.162379473164,3.7803547806771,220.47391557455,0.1485357733488292,-2.748161402258344,-0.001566260584336617,0.0,FuelLeak,0.6,,,,None
2025-12-06_07:04:37,12.94981618605848,77.67679889467578,2911.162171055087,3.782410119494316,220.4737020603609,0.1433065482950378,-2.753340118962313,0.01091771724725341,Normal,0.465,,,,None
2025-12-06_07:04:38,12.94981618658894,77.67679889424129,2911.162312427844,3.783266756769666,220.4737429622623,0.144430842697166,-2.749603806292523,0.01011959935759087,Normal,0.465,,,,None
2025-12-06_07:04:39,12.94981618737679,77.67679889420697,2911.162293959898,3.78507343751762,220.4738204978976,0.1506321735783226,-2.747040040727243,0.0001766302666115819,Normal,0.465,,,,None
2025-12-06_07:04:40,12.94981618737497,77.67679889420671,2911.162293941309,3.785072168671705,220.4738625367385,0.1506246767083491,-2.74705048100234,0.0001767988119553872,Normal,0.465,,,,None
2025-12-06_07:04:41,12.94981618657946,77.67679889423526,2911.162311661054,3.783247659990684,220.4738735885485,0.1443727800309838,-2.74962846190225,0.0101231380827623,Normal,0.465,,,,None
2025-12-06_07:04:42,12.94981618769054,77.67679889460537,2911.162576728594,3.778970462884858,220.4739265605392,0.151726042612851,-2.747036575544608,-0.02678202893009937,Normal,0.465,,,,None
2025-12-06_07:04:44,12.94981618651021,77.67679889403107,2911.162404800394,3.787024279964655,220.4739655616604,0.1447920650132368,-2.749690625038139,0.01154293152648471,Normal,0.465,,,,None
2025-12-06_07:04:45,12.94981618779177,77.67679889445911,2911.162412208139,3.780217354435002,220.4738800383303,0.1532187272306038,-2.74650481153487,-0.0318633140546932,Normal,0.465,,,,None
2025-12-06_07:04:46,12.94981618636735,77.6767988938202,2911.162233216166,3.786165263044464,220.4737299204987,0.1439928187483556,-2.749327123938875,0.008454675672091058,Normal,0.465,,,,None
2025-12-06_07:04:47,12.94981618680174,77.67679889422062,2911.162625059491,3.788011589803618,220.473786372095,0.146442349022649,-2.749256490818267,0.01354688842896402,Normal,0.465,,,,None
2025-12-06_07:04:49,0.0,12.94981618710888,77.67679889448446,2911.1627504226,3.786635313312269,220.4738197173092,0.1476932084279319,-2.748906777680884,FuelLeak,0.85,,,,None
2025-12-06_07:04:50,0.01421256833963246,0.0,12.94981618767462,77.6767988946063,2911.162576403287,3.778969977035725,220.473883028439,0.1517282164968197,FuelLeak,0.6,,,,None
2025-12-06_07:04:51,-2.747020626860682,-0.02678204186122807,0.0,12.94981618654083,77.6767988938201,2911.162108220221,3.78561773453627,220.4739069441858,FuelLeak,0.74,,,,None
2025-12-06_07:04:53,0.145492041044271,-2.748886339748378,0.003593997010574124,0.0,12.94981618662888,77.67679889426708,2911.162180414606,3.781012686522079,FuelLeak,0.72,,,,None
2025-12-06_07:04:54,220.4739414620346,0.1446717531006133,-2.749223550224801,0.006288865515386404,0.0,12.94981618826286,77.67679889453541,2911.162949030419,EngineFailure,0.525,,,,None
2025-12-06_07:04:55,3.780929140021666,220.4740468299727,0.153766098064836,-2.744520020525462,-0.02542066618331029,0.0,12.94981618611408,77.67679889392474,FuelLeak,0.68,,,,None
2025-12-06_07:04:56,2911.162505793491,3.786450985855073,220.4737901371945,0.1412406502953367,-2.750250284088765,0.01525542317820733,0.0,12.94981618734354,FuelLeak,0.68,,,,None
2025-12-06_07:04:57,77.67679889420818,2911.162294011015,3.785098048218603,220.4737896120116,0.1506272457707497,-2.747015372551883,0.0001720822753589874,0.0,FuelLeak,0.6,,,,None
2025-12-06_07:04:58,12.94981618647915,77.67679889402916,2911.162403977837,3.787026651771062,220.4737990207618,0.1447830211156909,-2.74963053579926,0.01154323254522651,Normal,0.465,,,,None
2025-12-06_07:04:59,12.94981618765768,77.67679889475284,2911.163020118715,3.782762933447953,220.4738598977636,0.151089720615887,-2.747977460343705,-0.01658354721135158,Normal,0.465,,,,None
2025-12-06_07:05:00,12.94981618727509,77.6767988944789,2911.162881692299,3.789143997209953,220.4739094467644,0.1492971116497251,-2.7485077669014,0.01482866585404189,Normal,0.465,,,,None
2025-12-06_07:05:01,12.94981618733772,77.67679889421028,2911.162293397583,3.785071781530195,220.4739389859677,0.1506173822946276,-2.747063914256346,0.0001767179711833574,Normal,0.465,,,,None
2025-12-06_07:05:02,12.94981618765378,77.67679889475413,2911.163020197718,3.782762054351247,220.4739813475558,0.1510814821585813,-2.748011171410025,-0.01658360520719532,Normal,0.465,,,,None
2025-12-06_07:05:03,12.94981618727067,77.67679889412665,2911.16225259509,3.778785288779459,220.473965494286,0.1477275842348828,-2.745981765130361,-0.006182560182459071,Normal,0.465,,,,None
2025-12-06_07:05:05,12.94981618691301,77.67679889417278,2911.162259129038,3.785051935613832,220.473946285733,0.1478213842513281,-2.748619849178682,0.003498268560541851,Normal,0.465,,,,None
2025-12-06_07:05:06,12.94981618690578,77.67679889484673,2911.162498604319,3.781595031563871,220.4737354063107,0.1486660709940186,-2.750398997753038,-0.002464105263654854,Normal,0.465,,,,None
2025-12-06_07:05:07,12.94981618659143,77.67679889424969,2911.162180089299,3.781052821053729,220.4737655658083,0.1445734305719343,-2.749117865979071,0.006281985956243768,Normal,0.465,,,,None
2025-12-06_07:05:08,12.94981618683875,77.67679889383955,2911.161890782024,3.785427327021965,220.4738278120957,0.1480054436330684,-2.747682440850655,0.001219209050954116,Normal,0.465,,,,None
2025-12-06_07:05:09,12.94981618650839,77.67679889382222,2911.162107583551,3.785616589511838,220.4738386040948,0.1454956596771521,-2.74886001712646,0.003594004866528338,Normal,0.465,,,,None
2025-12-06_07:05:10,0.0,12.94981618659659,77.67679889426911,2911.162179773289,3.781011993056182,220.4738684628181,0.1446754268206835,-2.749195740985591,FuelLeak,0.85,,,,None
2025-12-06_07:05:11,0.006288832562348298,0.0,12.94981618636801,77.67679889390065,2911.16223402478,3.786199016530175,220.4739249253149,0.1444404190669622,FuelLeak,0.6,,,,None
2025-12-06_07:05:12,-2.749544171706416,0.008426031968993242,0.0,12.94981618763656,77.67679889461013,2911.162575864209,3.778969436939042,220.4739875158747,FuelLeak,0.74,,,,None
2025-12-06_07:05:13,0.1517191899550617,-2.747042007986535,-0.02678205722557701,0.0,12.94981618574868,77.67679889371013,2911.162363533129,3.787255956618956,FuelLeak,0.72,,,,None
2025-12-06_07:05:14,220.4739284938404,0.1397272846522514,-2.750775951958335,0.01468695231957631,0.0,12.94981618632027,77.67679889394682,2911.161992402485,EngineFailure,0.525,,,,None
2025-12-06_07:05:16,3.781394286877842,220.4740456987519,0.1433952212498829,-2.74909372160386,0.003015603221660754,0.0,12.9498161865737,77.67679889425119,FuelLeak,0.68,,,,None
2025-12-06_07:05:17,2911.162179791877,3.78105311687366,220.4737781464018,0.1445717635121809,-2.749117588796535,0.006281984144862428,0.0,12.94981618648975,FuelLeak,0.68,,,,None
2025-12-06_07:05:18,77.67679889382009,2911.162107128125,3.785620600624709,220.473818405852,0.1454750356087008,-2.748843709898464,0.003594338595230442,0.0,FuelLeak,0.6,,,,None
2025-12-06_07:05:19,12.94981618635273,77.67679889390115,2911.162233680885,3.78619819070725,220.473858086056,0.1444431219589534,-2.749521450787746,0.008426035833179175,Normal,0.465,,,,None
2025-12-06_07:05:20,12.94981618756153,77.67679889444061,2911.162645116897,3.784434982947541,220.4739307130661,0.1519927160405614,-2.74736148402943,-0.01896403923951532,Normal,0.465,,,,None
2025-12-06_07:05:21,12.94981618644185,77.67679889403628,2911.162403587467,3.787025101566772,220.4739363446306,0.1447907738409024,-2.749667246058217,0.01154301025711879,Normal,0.465,,,,None
2025-12-06_07:05:22,12.94981618761924,77.67679889461151,2911.162575566786,3.778970458642757,220.4739860783138,0.1517184730399328,-2.747037778474413,-0.02678204038460307,Normal,0.465,,,,None
2025-12-06_07:05:23,12.94981618674398,77.67679889422952,2911.162624543647,3.788015163385035,220.474015641074,0.146439784422135,-2.749312409570388,0.01354624299153958,Normal,0.465,,,,None
2025-12-06_07:05:24,12.94981618747827,77.67679889478461,2911.162875869363,3.781977966996337,220.4739382264962,0.1506677480537993,-2.748617574870691,-0.01766000324848049,Normal,0.465,,,,None
2025-12-06_07:05:25,12.94981618645454,77.67679889416374,2911.16230895637,3.783219500875862,220.4737711880646,0.1439056550632962,-2.749402477621493,0.01014840168933239,Normal,0.465,,,,None
2025-12-06_07:05:26,12.94981618736381,77.67679889456637,2911.162520320757,3.775641881986508,220.4738232929919,0.149680066640731,-2.747399367706214,-0.03277386248934112,Normal,0.465,,,,None
2025-12-06_07:05:28,12.94981618686343,77.67679889441816,2911.162263450938,3.778364980901527,220.4738323532452,0.1464058775910648,-2.748254546834772,-0.001450251388671955,Normal,0.465,,,,None
2025-12-06_07:05:29,12.94981618760476,77.67679889461199,2911.162575218244,3.778970014700443,220.4739005678248,0.1517238233738847,-2.747010260322413,-0.02678208040143762,Normal,0.465,,,,None
2025-12-06_07:05:30,12.94981618760353,77.67679889461238,2911.162575250774,3.778971975322077,220.473937933698,0.151721103599879,-2.747020578956926,-0.02678209199517697,Normal,0.465,,,,None
2025-12-06_07:05:31,12.94981618672813,77.67679889423043,2911.162624213694,3.788015726429629,220.4739721711053,0.146442111927584,-2.749296552085265,0.01354627877715044,Normal,0.465,,,,None
2025-12-06_07:05:32,0.0,12.94981618633103,77.67679889390413,2911.162233476407,3.786199017492448,220.4739967642663,0.1444335310556742,-2.749556437892519,FuelLeak,0.85,,,,None
2025-12-06_07:05:33,0.008426001004448302,0.0,12.94981618711373,77.67679889441693,2911.162683804872,3.785872298824104,220.4740155824883,0.1476753296025564,FuelLeak,0.6,,,,None
2025-12-06_07:05:34,-2.748199255229835,0.01259087920977029,0.0,12.94981618679844,77.67679889497927,2911.162559817336,3.785266049015847,220.4737697031329,FuelLeak,0.74,,,,None
2025-12-06_07:05:35,0.148767093800729,-2.751635055966183,0.009278337581945736,0.0,12.94981618735325,77.67679889457747,2911.16252096207,3.77565987909744,FuelLeak,0.72,,,,None
2025-12-06_07:05:36,220.4738222057477,0.1497430991565194,-2.747411705726537,-0.03277684589892388,0.0,12.94981618664077,77.67679889431741,2911.162508349495,EngineFailure,0.525,,,,None
2025-12-06_07:05:38,3.78511159061015,220.4738422996582,0.1453988903932371,-2.749473227012981,0.01259601554932446,0.0,12.94981618647515,77.67679889424353,FuelLeak,0.68,,,,None
2025-12-06_07:05:39,2911.162309857931,3.783247930343571,220.4738834837808,0.144366214269678,-2.749607949600677,0.01012324696271105,0.0,12.94981618654286,FuelLeak,0.68,,,,None
2025-12-06_07:05:40,77.67679889427377,2911.162178918199,3.781012917977134,220.47392482507,0.1446686925682058,-2.749199810115553,0.006288832261790914,0.0,FuelLeak,0.6,,,,None
2025-12-06_07:05:41,12.94981618758433,77.6767988947597,2911.163018998734,3.782761357931346,220.4739895302091,0.1510775014180966,-2.747998113489197,-0.01658359730851135,Normal,0.465,,,,None
2025-12-06_07:05:42,12.94981618758299,77.67679889476014,2911.163019040559,3.782760645073594,220.474031555619,0.151074487393833,-2.748009793738028,-0.01658364436137806,Normal,0.465,,,,None
2025-12-06_07:05:43,12.94981618773078,77.67679889448378,2911.162732507659,3.784896759993684,220.4740650191378,0.1529292051063136,-2.746748012265745,-0.01895412346291141,Normal,0.465,,,,None
2025-12-06_07:05:45,12.94981618559437,77.67679889381711,2911.161874925657,3.781534632282969,220.4738272847244,0.1392362082425229,-2.751089949443866,0.008011568999294645,Normal,0.465,,,,None
2025-12-06_07:05:46,12.94981618698658,77.67679889445395,2911.162748703124,3.786676878046395,220.4738101906938,0.1474565918924507,-2.748781061504883,0.01420368236632694,Normal,0.465,,,,None
2025-12-06_07:05:47,12.94981618662217,77.67679889431676,2911.162507880125,3.78511017020749,220.4738407461849,0.1453846824550573,-2.749465651582778,0.01259651654057861,Normal,0.465,,,,None
2025-12-06_07:05:48,12.94981618725285,77.67679889421719,2911.162291887233,3.785071503222076,220.4738989800415,0.1506189712683733,-2.747034724077388,0.000176671123187757,Normal,0.465,,,,None
2025-12-06_07:05:49,12.94981618756912,77.67679889461512,2911.162574655928,3.778969414635869,220.4739349548807,0.1517196918978252,-2.74701211997048,-0.02678210508086501,Normal,0.465,,,,None
2025-12-06_07:05:50,12.94981618700023,77.67679889449398,2911.162748717066,3.786635997794466,220.4739650624234,0.1476763725469706,-2.748923479677144,0.01421261732288242,Normal,0.465,,,,None
2025-12-06_07:05:51,12.94981618724866,77.67679889421798,2911.162291947647,3.785071423008758,220.4740203806255,0.1506075079139111,-2.747067441770237,0.0001766896505574733,Normal,0.465,,,,None
2025-12-06_07:05:52,12.94981618750529,77.67679889444615,2911.162644312927,3.784434465324131,220.4740663637326,0.1519805805134833,-2.74738765209938,-0.01896411568574577,Normal,0.465,,,,None
2025-12-06_07:05:53,12.94981618681715,77.6767988942369,2911.162338614879,3.781952628633342,220.4740337149475,0.1456985551272458,-2.747941398311805,0.006676526814159024,Normal,0.465,,,,None
2025-12-06_07:05:55,12.94981618694814,77.67679889445675,2911.162743586545,3.786547998193829,220.4738078044084,0.1473842121274282,-2.748873068650124,0.01429346981093219,Normal,0.465,,,,None
2025-12-06_07:05:56,0.0,12.9498161868178,77.67679889443345,2911.162262856091,3.778352931192265,220.473837359769,0.1464733362161143,-2.748269310377084,FuelLeak,0.85,,,,None
2025-12-06_07:05:58,-0.001450698767798044,0.0,12.94981618675161,77.67679889384996,2911.161889425033,3.785425666890322,220.4738999067907,0.1480143256945531,FuelLeak,0.6,,,,None
2025-12-06_07:05:59,-2.747689488998486,0.001218986998238504,0.0,12.94981618641916,77.67679889382993,2911.162106133616,3.785618335279366,220.4739246454954,FuelLeak,0.74,,,,None
2025-12-06_07:06:00,0.1454852501312361,-2.748864589163392,0.003593989763184798,0.0,12.94981618698296,77.67679889449533,2911.162748419643,3.786634302528568,FuelLeak,0.72,,,,None
2025-12-06_07:06:01,220.4739635338159,0.1496382126545085,-2.747419374109935,-0.03277404610012255,0.0,12.94981618698161,77.67679889449576,2911.162748433585,EngineFailure,0.525,,,,None
2025-12-06_07:06:02,3.786634304260461,220.4740055525287,0.1476726908268532,-2.74893092526864,0.01421261685738537,0.0,12.94981618636928,77.67679889404288,FuelLeak,0.68,,,,None
2025-12-06_07:06:04,2911.162402453543,3.787025106056401,220.4740424322035,0.1447799599282641,-2.749681426534976,0.01154302169993917,0.0,12.94981618677065,FuelLeak,0.68,,,,None
2025-12-06_07:06:05,77.67679889421285,2911.162240898031,3.784918886029593,220.4739838820503,0.1477532243415787,-2.748879745417281,0.003565377672456853,0.0,FuelLeak,0.6,,,,None
2025-12-06_07:06:06,12.94981618744477,77.67679889451958,2911.162629372148,3.784198172888763,220.473850065197,0.1520866121404992,-2.747757159912127,-0.01881231910246512,Normal,0.465,,,,None
2025-12-06_07:06:07,12.94981618748405,77.67679889445945,2911.162644043386,3.784428153842811,220.473881436304,0.1520716626147028,-2.747355714933855,-0.01896486383282281,Normal,0.465,,,,None
2025-12-06_07:06:08,12.94981618626547,77.6767988939089,2911.162232221654,3.786198326387794,220.4738926370732,0.1444397531344421,-2.749513003955292,0.008426028345070618,Normal,0.465,,,,None
2025-12-06_07:06:09,12.94981618728828,77.67679889456862,2911.162519196127,3.77565084340168,220.4739479902721,0.1496396921573546,-2.747407440969459,-0.0327740945462768,Normal,0.465,,,,None
2025-12-06_07:06:10,12.94981618747275,77.67679889444824,2911.162643666962,3.784435884247503,220.4740025841328,0.15198340565914,-2.747362317643838,-0.01896408912744993,Normal,0.465,,,,None
2025-12-06_07:06:11,12.94981618672986,77.67679889385197,2911.16188916014,3.785424956651737,220.4740243930404,0.1480002251582546,-2.747718823589007,0.001219091972007894,Normal,0.465,,,,None
2025-12-06_07:06:12,12.94981618728493,77.67679889456966,2911.162519270481,3.775651538431224,220.4740506790821,0.1496321817408327,-2.747435840269039,-0.03277406971087879,Normal,0.465,,,,None
2025-12-06_07:06:13,12.94981618660916,77.67679889383197,2911.161762584123,3.781641395964469,220.4740437757412,0.1470143809216266,-2.747470058515697,-0.006914628663472749,Normal,0.465,,,,None
2025-12-06_07:06:15,12.94981618621247,77.67679889390516,2911.16222425169,3.786064769857882,220.4738207294021,0.1442640686906578,-2.749619766794414,0.008536742598192369,Normal,0.465,,,,None
2025-12-06_07:06:16,12.94981618638813,77.67679889383545,2911.16210547371,3.785611864149026,220.4738654813927,0.1455085473278402,-2.748849328516101,0.003594319916975523,Normal,0.465,,,,None
2025-12-06_07:06:17,12.94981618638585,77.67679889383272,2911.162105575949,3.785619109258075,220.4738934846662,0.1454881735254508,-2.748848686512569,0.003593864148291765,Normal,0.465,,,,None
2025-12-06_07:06:18,12.9498161874568,77.67679889444902,2911.162643337009,3.784435392425154,220.4739589624829,0.1519847027347426,-2.747346050871804,-0.01896405368846248,Normal,0.465,,,,None
2025-12-06_07:06:19,12.94981618656868,77.67679889432559,2911.162507262043,3.785108747109156,220.4739575689839,0.14539677556292,-2.749493413381369,0.01259597387673068,Normal,0.465,,,,None
2025-12-06_07:06:20,12.9498161869465,77.6767988944987,2911.162747857329,3.786635971302935,220.4740210473675,0.1476699567194245,-2.748927551075347,0.01421265685229271,Normal,0.465,,,,None
2025-12-06_07:06:21,0.0,12.94981618656522,77.6767988943267,2911.162507327103,3.785109554881321,220.4740649138755,0.1453891932027825,-2.749523186153187,FuelLeak,0.85,,,,None
2025-12-06_07:06:22,0.01259602933331129,0.0,12.94981618707865,77.67679889457347,2911.16274887043,3.787966194407784,220.4740035672808,0.1492955394248368,FuelLeak,0.6,,,,None
2025-12-06_07:06:23,-2.74898462945438,0.01350109380787093,0.0,12.94981618672688,77.67679889452623,2911.162281347327,3.785212335680741,220.4738324161106,FuelLeak,0.74,,,,None
2025-12-06_07:06:24,0.1495703676531254,-2.749843868178453,-0.001439271619740088,0.0,12.94981618675767,77.67679889442643,2911.162261461925,3.778357146341699,FuelLeak,0.72,,,,None
2025-12-06_07:06:26,220.4738744036699,0.1463937102298744,-2.748244126457782,-0.001449665034501341,0.0,12.94981618645672,77.67679889428065,2911.162177398555,EngineFailure,0.525,,,,None
2025-12-06_07:06:27,3.781013356411942,220.4739170274666,0.1446655522285457,-2.74917879251407,0.006288929279105965,0.0,12.94981618645532,77.67679889428103,FuelLeak,0.68,,,,None
2025-12-06_07:06:28,2911.162177435733,3.781013664633188,220.4739590421862,0.1446621625381502,-2.749190221444788,0.00628886520447494,0.0,12.94981618711549,FuelLeak,0.68,,,,None
2025-12-06_07:06:29,77.67679889449256,2911.162879099146,3.789143989966463,220.4740312320119,0.1492809047037019,-2.748507113946291,0.01482862307100361,0.0,FuelLeak,0.6,,,,None
2025-12-06_07:06:30,12.94981618662199,77.67679889423948,2911.16262247563,3.788014092118886,220.4740468907029,0.1464316625002699,-2.749294240908724,0.01354630729876277,Normal,0.465,,,,None
2025-12-06_07:06:31,12.94981618749403,77.67679889476783,2911.16301759527,3.782762898196764,220.4741077250912,0.1510648680739925,-2.748011726603935,-0.01658360095886089,Normal,0.465,,,,None
2025-12-06_07:06:32,12.9498161874565,77.6767988948599,2911.162896326371,3.782106267312464,220.4740564789238,0.1513785620521195,-2.748528700070088,-0.01779618983659504,Normal,0.465,,,,None
2025-12-06_07:06:33,12.94981618631103,77.6767988937633,2911.162103215162,3.785575807847917,220.4738464935095,0.1450419511162772,-2.748675835631658,0.003630560715502596,Normal,0.465,,,,None
2025-12-06_07:06:34,12.94981618621907,77.67679889392171,2911.162231561748,3.786188192352864,220.4738786291057,0.1444942179983942,-2.749517445218352,0.008425759106588134,Normal,0.465,,,,None
2025-12-06_07:06:35,12.94981618621312,77.6767988939137,2911.162231394448,3.786196536494796,220.4739158197658,0.1444381886685911,-2.749508565819272,0.008425880997879056,Normal,0.465,,,,None
2025-12-06_07:06:36,12.94981618691383,77.67679889450085,2911.162747229953,3.786635767581135,220.4739617889498,0.1476724088193056,-2.748903396361951,0.01421266657803253,Normal,0.465,,,,None
2025-12-06_07:06:38,12.94981618673761,77.67679889443008,2911.162261434041,3.778362140487348,220.4739895521627,0.1463925890189373,-2.748273065596178,-0.001450247581079818,Normal,0.465,,,,None
2025-12-06_07:06:39,12.9498161863668,77.6767988942534,2911.162308166337,3.783248120637066,220.4740281127831,0.1443516148338161,-2.749625309956261,0.01012329639511817,Normal,0.465,,,,None
2025-12-06_07:06:40,12.94981618620765,77.67679889391454,2911.16223144092,3.786197711559228,220.4740698223574,0.1444223984976149,-2.749549836026016,0.00842604071757244,Normal,0.465,,,,None
2025-12-06_07:06:41,12.94981618746226,77.67679889479726,2911.162913381626,3.782236560159061,220.4740879579694,0.1512377014730348,-2.748165605590964,-0.0178441685307581,Normal,0.465,,,,None
2025-12-06_07:06:42,12.94981618603504,77.67679889471967,2911.162379491663,3.784498068741286,220.4738322254965,0.1444311743810018,-2.75289218475031,0.01336626151343158,Normal,0.465,,,,None
2025-12-06_07:06:43,12.94981618722276,77.6767988945742,2911.162518722107,3.77567828397671,220.4738857300934,0.1496478677763131,-2.747370600676103,-0.0327788716118167,Normal,0.465,,,,None
2025-12-06_07:06:44,12.94981618746425,77.6767988946209,2911.162572769155,3.778972170651458,220.4739253465821,0.1516998092917595,-2.746981167716398,-0.02678194327235006,Normal,0.465,,,,None
2025-12-06_07:06:45,12.94981618628569,77.67679889404869,2911.162400906017,3.787023769686154,220.4739503502809,0.1447810628356068,-2.749636255577672,0.01154307296064555,Normal,0.465,,,,None
2025-12-06_07:06:47,0.0,12.94981618628442,77.67679889404928,2911.162400933901,3.787025402307737,220.473992362181,0.1447790727726332,-2.749648212320408,FuelLeak,0.85,,,,None
2025-12-06_07:06:48,0.01154308152319854,0.0,12.94981618707964,77.67679889449573,2911.162878518242,3.789143986248565,220.4740699555832,0.1492763972077558,FuelLeak,0.6,,,,None
2025-12-06_07:06:50,-2.748510134578858,0.01482867149015312,0.0,12.94981618628185,77.67679889405011,2911.162400994313,3.787024578525008,220.4740716917392,FuelLeak,0.74,,,,None
2025-12-06_07:06:51,0.1447734551393586,-2.749670204347308,0.01154306059321295,0.0,12.94981618714135,77.67679889431261,2911.162091141776,3.775378980412039,FuelLeak,0.72,,,,None
2025-12-06_07:06:52,220.47405221245,0.1498289314382507,-2.746781647903996,-0.03562482293396359,0.0,12.94981618563166,77.67679889378074,2911.162369397897,EngineFailure,0.525,,,,None
2025-12-06_07:06:53,3.787048408888666,220.4739145742569,0.1400732854554519,-2.750715792855349,0.01459535060836369,0.0,12.94981618686313,77.67679889446438,FuelLeak,0.68,,,,None
