time,lat,lon,alt_ft,airspeed_kt,heading_deg,pitch_deg,roll_deg,vsi_fps,pred,f_prob,target_icao,cmd_heading,cmd_alt,cmd_throttle
2025-11-09_22:09:29,39.82435072008339,-104.6620665000371,1778.186686815782,84.95881909507612,11.39742312359651,-3.756135033508492,-8.02513885114248,-4.578642345527811,Normal,0.63,,,,None
2025-11-09_22:09:33,39.82600865734476,-104.6615447705919,1758.881644230728,85.06035654394948,4.540386921901227,-3.741231616790266,-8.016038904775586,-4.500005051561051,Normal,0.63,,,,None
2025-11-09_22:09:37,39.82769586871586,-104.6612795271782,1740.056523853906,85.09008162636081,357.5779577981685,-3.674261468132938,-8.004679504900816,-4.324640555486976,Normal,0.835,,,,None
2025-11-09_22:09:42,39.82938668346513,-104.661277070306,1721.851748952288,85.04009966964469,350.7016904316622,-3.629412250706666,-8.007474679447183,-4.2389822185694,Normal,0.835,,,,None
2025-11-09_22:09:46,39.83104211343752,-104.6615357502911,1704.200090685267,84.97789067857197,343.7636233120252,-3.640329599500308,-8.023321769620726,-4.292866782703785,Normal,0.835,,,,None
2025-11-09_22:09:50,39.83255776758867,-104.6620394505557,1684.634594380174,84.97468167671148,334.2361743411067,-3.693300755540461,-8.042121007050913,-4.419108066360649,Normal,0.835,,,,None
2025-11-09_22:09:56,39.83478273668537,-104.6631805496305,1659.741690661378,85.02266423383486,327.0305395535756,-3.700527657934244,-8.04410455867878,-4.414928128905438,Normal,0.835,,,,None
2025-11-09_22:10:00,39.83617333019436,-104.664265360886,1641.653165047955,85.04910579533038,320.0135280600071,-3.674976060439394,-8.04162213892424,-4.341658225692221,Normal,0.835,,,,None
2025-11-09_22:10:04,39.83750047976412,-104.6655992990471,1621.869849587171,85.03640728351151,312.8154744475981,-3.647128496048027,-8.043740845485155,-4.280233432539998,Normal,0.835,,,,None
2025-11-09_22:10:09,39.83852591572646,-104.667005754453,1604.739951987305,85.00917328632138,306.0673096136586,-3.642837250635193,-8.051820184967116,-4.281438811166199,Normal,0.835,,,,None
2025-11-09_22:10:13,39.83950658481702,-104.6686243187336,1586.784079756679,84.99529874864969,299.1024887248869,-3.656734076333609,-8.062168657401362,-4.319263498425954,Normal,0.835,,,,None
2025-11-09_22:10:17,39.84028489750091,-104.670370562122,1568.678235892795,85.00544055367814,292.1408528575437,-3.668853361669811,-8.069278480571025,-4.34278828691456,Normal,0.835,,,,None
2025-11-09_22:10:21,39.84087233356578,-104.6722233734856,1550.409647418145,85.02410972636325,285.143522580825,-3.665827017589983,-8.07236748353536,-4.326424912064168,Normal,0.835,,,,None
2025-11-09_22:10:25,39.84127016251031,-104.6741453765362,1532.281718756328,85.03121510715873,278.1687561670384,-3.651987088726702,-8.07474644231007,-4.289043835530165,Normal,0.835,,,,None
2025-11-09_22:10:29,39.84146530706126,-104.6761125434826,1514.196938616182,85.02309653691499,271.1753014462391,-3.640827356044503,-8.079483954676249,-4.264732504408458,Normal,0.835,,,,None
2025-11-09_22:10:34,39.84145739813515,-104.6781004612585,1496.352473344603,85.01124694694937,264.1752440862938,-3.639730238140943,-8.086723715776136,-4.266021205716873,Normal,0.835,,,,None
2025-11-09_22:10:38,39.84124477219127,-104.6800531821403,1478.396689559422,85.00782703725831,257.1670117668921,-3.644743573301362,-8.094091236533057,-4.278038867653004,Normal,0.835,,,,None
2025-11-09_22:10:42,39.84083483134207,-104.6819506987252,1460.430282833106,85.01378347385351,250.1507698159185,-3.647014269530058,-8.099677101992215,-4.279329369282564,Normal,0.835,,,,None
2025-11-09_22:10:46,39.84022843409456,-104.6837514427431,1442.532178943062,85.02077329594859,243.127919322923,-3.64267611391847,-8.103998441008894,-4.264360709775791,Normal,0.835,,,,None
2025-11-09_22:10:50,39.83944015266731,-104.6854502789524,1424.518168206355,85.02181793095608,236.1274584098384,-3.635161261595585,-8.108229980384355,-4.244373537393325,Normal,0.835,,,,None
2025-11-09_22:10:55,39.83851917790296,-104.6870037956062,1406.727649261093,85.01718384793179,229.0656266520795,-3.630027915384493,-8.113644509543873,-4.232386234419359,Normal,0.835,,,,None
2025-11-09_22:10:59,39.83735531258845,-104.6883523378294,1388.985658687925,85.01264183980697,222.0253982424544,-3.629209539929163,-8.119783574758824,-4.230599842332719,Normal,0.835,,,,None
2025-11-09_22:11:03,39.83609394901772,-104.6895653248993,1371.181483539755,85.01232014153925,214.9644745491459,-3.630060017472401,-8.125694825122721,-4.230947879404661,Normal,0.835,,,,None
2025-11-09_22:11:07,39.83470799024117,-104.6905381497474,1353.412912328052,85.01533977869637,207.9251800454483,-3.629105962489635,-8.130612922935772,-4.225450995825277,Normal,0.835,,,,None
2025-11-09_22:11:11,39.83323004826533,-104.6912711768639,1335.668055967408,85.0179142804763,200.9643484316424,-3.625507373797013,-8.13525879716078,-4.213904018986383,Normal,0.835,,,,None
2025-11-09_22:11:16,39.83166830535916,-104.6917612100732,1317.93606748928,85.01775045990559,193.8162095905809,-3.62122428854097,-8.139849661913361,-4.201858001535913,Normal,0.835,,,,None
2025-11-09_22:11:20,39.83005563317544,-104.6919917464557,1300.323537524468,85.01575254639525,186.732882868237,-3.618379846156256,-8.14481852967558,-4.194108344024838,Normal,0.835,,,,None
2025-11-09_22:11:24,39.82841362214467,-104.6919606433211,1282.70828717783,85.01444733448733,179.6440746254752,-3.617248930838182,-8.150003331003596,-4.190081309401868,Normal,0.835,,,,None
2025-11-09_22:11:28,39.82676407469226,-104.6916619627021,1265.110349056716,85.01505078143934,172.5919176904,-3.616488293132729,-8.154870702831744,-4.186124338996539,Normal,0.835,,,,None
2025-11-09_22:11:33,39.82513234649043,-104.6910975309798,1247.494856679717,85.0167949362506,165.5064588083982,-3.614862599656458,-8.159510773210403,-4.178280582582414,Normal,0.835,,,,None
2025-11-09_22:11:37,39.82332913621253,-104.6901426502783,1227.541968159174,85.01816065460433,157.4028381111677,-3.611768412673477,-8.164090204914128,-4.169780833255054,Normal,0.835,,,,None
2025-11-09_22:11:42,39.82182064860022,-104.6890278025259,1209.960386517394,85.01825197759968,150.335308975892,-3.609229062155014,-8.168309434390126,-4.162036117906993,Normal,0.835,,,,None
2025-11-09_22:11:46,39.82042125388097,-104.6876958181211,1192.480615451944,85.01807068448059,143.3476354870562,-3.607429472001277,-8.172606459516672,-4.156131795369614,Normal,0.835,,,,None
2025-11-09_22:11:50,39.81913789326489,-104.6861569004233,1175.059828278033,85.0183270285707,136.1014636724111,-3.606204221239714,-8.176845046041997,-4.151511399898753,Normal,0.835,,,,None
2025-11-09_22:11:54,39.8179976053177,-104.684386363737,1157.554944439605,85.01947466893095,128.9914473909128,-3.604942952903603,-8.180831133657538,-4.146493026932811,Normal,0.835,,,,None
2025-11-09_22:11:58,39.81700367285467,-104.6824644469038,1140.140505281704,85.02102112466815,121.9615023671237,-3.603244523943741,-8.184661129620173,-4.140448888028832,Normal,0.835,,,,None
2025-11-09_22:12:03,39.81619539723392,-104.68041076614,1123.027343207257,85.0220303253688,114.8847134641886,-3.601240048553753,-8.188284346709148,-4.134026552242979,Normal,0.835,,,,None
2025-11-09_22:12:07,39.81555760748176,-104.6782073934072,1105.424099347161,85.0226443651168,107.6054766313102,-3.599438089228493,-8.192048902797843,-4.128156535464776,Normal,0.835,,,,None
2025-11-09_22:12:11,39.81512186484569,-104.6759678791055,1088.326997320956,85.02341604329996,100.4770207873087,-3.597958281192324,-8.195751464907273,-4.123239184383311,Normal,0.835,,,,None
2025-11-09_22:12:15,39.81488871548984,-104.673625755132,1070.803630125019,85.02435509137226,93.37215338411899,-3.596656303031585,-8.19936035336252,-4.118672199577366,Normal,0.8,,,,None
2025-11-09_22:12:19,39.81485950270686,-104.6712867977196,1053.471467176475,85.02569238625547,86.23421891561321,-3.595243764733812,-8.202884480416696,-4.113831203396978,Normal,0.705,,,,None
2025-11-09_22:12:24,39.81503770380883,-104.668641517917,1033.796262834524,85.0271843655238,78.07070098531126,-3.593319904290472,-8.206841155517028,-4.107682095414655,Normal,0.705,,,,None
2025-11-09_22:12:28,39.81549045605367,-104.6663633046136,1016.441870290991,85.02828776803109,70.93660811496846,-3.591639824366854,-8.210272688154014,-4.102488593068228,Normal,0.705,,,,None
2025-11-09_22:12:33,39.81609110815268,-104.6641992557634,999.2461516608344,85.0292823344727,63.75743995038398,-3.590065653619336,-8.223408464287566,-4.096462423043886,Normal,0.705,,,,None
2025-11-09_22:12:37,39.81683251235702,-104.6621038930436,982.075182891234,85.02531165815596,56.65640712609537,-3.589174988921239,-8.235032793868811,-4.09911835888802,Normal,0.705,,,,None
2025-11-09_22:12:41,39.81771615770925,-104.6598302335723,961.4977460312834,85.01752319458333,48.16510741698366,-3.598070882732685,-8.249054826659538,-4.126080626251141,Normal,0.675,,,,None
2025-11-09_22:12:46,39.81920916887175,-104.6581116778492,944.1636172443184,85.01945572542282,41.23508260884184,-3.610779759328577,-8.260546720975958,-4.155863641832364,Normal,0.635,,,,None
2025-11-09_22:12:50,39.82052902280414,-104.6566045527186,926.7434927240452,85.0278272140115,34.11399438796038,-3.619289520310644,-8.266024525862665,-4.17268175499589,Normal,0.63,,,,None
2025-11-09_22:12:54,39.82189171233136,-104.6553008899115,909.289292357464,85.03578734569157,27.03851709792296,-3.621271755643173,-8.268043672412448,-4.174233260170449,Normal,0.63,,,,None
2025-11-09_22:12:59,39.82353921486187,-104.654193724486,890.6082859885778,85.0363898034426,18.85781580534743,-3.621051588442123,-8.27107294072833,-4.174617532009897,Normal,0.63,,,,None
2025-11-09_22:13:03,39.82523563262609,-104.6533822534914,872.6213026576503,85.0345719459306,11.6939396856636,-3.623966729925245,-8.272010522441946,-4.182833896573307,Normal,0.63,,,,None
2025-11-09_22:13:07,39.82688395860846,-104.652852032699,854.946816184249,85.03305620737675,4.506449467431849,-3.629168802457055,-8.272564356605551,-4.1955513211024,Normal,0.63,,,,None
2025-11-09_22:13:12,39.82856560030042,-104.6526038190961,837.255128719829,85.03539998869827,357.3248434943927,-3.633639345584035,-8.271888490234396,-4.204823965466732,Normal,0.835,,,,None
2025-11-09_22:13:16,39.83024472663881,-104.6526256573621,819.6310397483048,85.04081763583545,350.3930196604773,-3.634401711363594,-8.269438792556647,-4.204002902093102,Normal,0.835,,,,None
2025-11-09_22:13:20,39.83204961332994,-104.6529541728826,799.4517657349637,85.04410092078834,341.8514750972492,-3.632864795663049,-8.266642624583092,-4.199392070174969,Normal,0.835,,,,None
2025-11-09_22:13:25,39.83370971263421,-104.6535644530998,781.95589405205,85.04208765309593,334.6333266716911,-3.631679022849583,-8.263884754305716,-4.195931941917753,Normal,0.835,,,,None
2025-11-09_22:13:29,39.83521026056783,-104.6543974628995,764.2284361067456,85.04126993469264,327.4084387131585,-3.631076497677833,-8.261171332346475,-4.193351018270969,Normal,0.835,,,,None
2025-11-09_22:13:33,39.83659170208256,-104.6554592353283,746.6173507827226,85.04246053834355,320.2195845666694,-3.629417368125816,-8.258249254864134,-4.187625083053645,Normal,0.785,,,,None
2025-11-09_22:13:37,39.83787208237026,-104.6567372429362,729.0311966272056,85.04323744083267,312.9380413667556,-3.626218609614513,-8.25520604879534,-4.177299751202714,Normal,0.615,,,,None
2025-11-09_22:13:42,39.83898371422216,-104.6582015724558,711.4188661498043,85.04382959620334,305.7076925575748,-3.621148301718116,-8.25210575341114,-4.16407367201801,Normal,0.615,,,,None
2025-11-09_22:13:46,39.83994725695744,-104.659825185422,694.0007221328551,85.0432016193309,298.442286917321,-3.616058828758939,-8.249660111485587,-4.150320391682312,Normal,0.615,,,,None
2025-11-09_22:13:50,39.84072183298912,-104.6615751444319,676.5365447108404,85.04315932566801,291.1851838481269,-3.610481781585831,-8.247628438401154,-4.135257038577265,Normal,0.59,,,,None
2025-11-09_22:13:54,39.84130692900366,-104.6634500336378,659.2053558255899,85.04418774243611,283.9508770616342,-3.604083109265353,-8.246071953788322,-4.11808011029327,Normal,0.59,,,,None
2025-11-09_22:13:58,39.84169257076356,-104.6653771306479,641.9475121311427,85.04278465982844,276.666967928652,-3.596867101828001,-8.24513174201517,-4.098609502424704,Normal,0.59,,,,None
2025-11-09_22:14:03,39.84187148249273,-104.6673608179842,624.6333870823179,85.04229212648771,269.3916579234458,-3.589222353471059,-8.244948373320751,-4.078180001902119,Normal,0.59,,,,None
2025-11-09_22:14:07,39.84184307455782,-104.6693355697137,607.5415952363021,85.04193165711845,262.1104802479965,-3.58096571296027,-8.24546378100693,-4.056367809657985,Normal,0.59,,,,None
2025-11-09_22:14:11,39.84160721166324,-104.6712786343688,590.5073135385685,85.04109754158738,254.8233635631251,-3.57233804180865,-8.246712933317143,-4.033753954662886,Normal,0.59,,,,None
2025-11-09_22:14:15,39.84116929941477,-104.6731560613129,573.5679202355042,85.03901448456783,247.6466121553159,-3.564109216524468,-8.2482865199623,-4.012043539990722,Normal,0.59,,,,None
2025-11-09_22:14:19,39.84054693333358,-104.674931495469,556.8521130597892,85.03619268373716,240.2915397257467,-3.556749805278142,-8.249400548493655,-3.993813926388865,Normal,0.59,,,,None
2025-11-09_22:14:24,39.83973342436029,-104.676555706216,539.9461012661922,85.0339432181719,232.9898528882003,-3.550539832279421,-8.25096037851077,-3.97749276006257,Normal,0.59,,,,None
2025-11-09_22:14:28,39.83874594765589,-104.6780736713529,523.3093596642046,85.03331967628624,225.6267374725135,-3.544058063543548,-8.252510990841056,-3.959550179210668,Normal,0.59,,,,None
2025-11-09_22:14:32,39.83760672930752,-104.6793754129899,506.7149036323394,85.0329092870836,218.3484605857157,-3.536594458895951,-8.25385967354029,-3.939227390755118,Normal,0.59,,,,None
2025-11-09_22:14:36,39.8362752058339,-104.6805037368231,489.4751993760269,85.00853114865546,210.7360397601917,-3.539463669336756,-8.263646427070814,-3.958727335550035,Normal,0.59,,,,None
2025-11-09_22:14:41,39.8348819451804,-104.6813660456981,472.670987715689,84.99687253117487,203.4538098976142,-3.56106702646786,-8.270806486946103,-4.011199130259087,Normal,0.59,,,,None
2025-11-09_22:14:45,39.83333043962121,-104.6819992320564,455.0214309602771,85.0192018610054,195.7135603913022,-3.571430780147063,-8.27115821665263,-4.023319081578188,Normal,0.59,,,,None
2025-11-09_22:14:49,39.83178117438277,-104.6823405617788,438.269293179489,85.04179010317797,188.4058102482684,-3.558044264631713,-8.266993417909587,-3.979137851615429,Normal,0.59,,,,None
2025-11-09_22:14:53,39.83020113481469,-104.6824117129242,421.3978080503346,85.04194321700696,181.0997153399417,-3.535564751775309,-8.2638151676899,-3.92358508639228,Normal,0.59,,,,None
2025-11-09_22:14:58,39.8286112596667,-104.6822149228773,405.3073098506321,85.02211490348392,173.1291113731067,-3.523028641999074,-8.267952626786133,-3.902550519976642,Normal,0.59,,,,None
2025-11-09_22:15:04,39.82623639881679,-104.6813932653843,379.9678769585146,85.00652665881208,162.6735691975876,-3.530242013402616,-8.269591418515315,-3.919543061452867,Normal,0.59,,,,None
2025-11-09_22:15:08,39.82474253578369,-104.6805350215099,363.5398303944358,85.01435945266793,155.362414797168,-3.534161601562973,-8.270568285365403,-3.92276191498429,Normal,0.59,,,,None
2025-11-09_22:15:12,39.82352075365541,-104.6793499390158,344.6567920895563,85.0264454630521,147.0344150856729,-3.5267240955069,-8.269863054546724,-3.896946599548078,Normal,0.59,,,,None
2025-11-09_22:15:17,39.8218327635819,-104.6778681413047,328.3269345650621,85.02737713330941,139.6975016434367,-3.514455873819341,-8.268422625533244,-3.865810567639243,Normal,0.59,,,,None
2025-11-09_22:15:21,39.8206755484419,-104.6762749759848,312.089585300189,85.0187286877412,132.4193349406197,-3.507302854086784,-8.269752917082725,-3.850827004634843,Normal,0.59,,,,None
2025-11-09_22:15:26,39.81966198712792,-104.674502574279,295.9133462698373,85.01104638645579,125.0692202189845,-3.507836377696566,-8.272429472381823,-3.853460020391197,Normal,0.59,,,,None
2025-11-09_22:15:30,39.81882113696556,-104.672587658657,279.6956601868122,85.01136140025882,117.7623185006778,-3.510963186616008,-8.274670222394782,-3.85888847648828,Normal,0.59,,,,None
2025-11-09_22:15:34,39.81815509709799,-104.6705245010176,263.4579802922877,85.01724731401664,110.4703174958129,-3.510715935970991,-8.275633356834943,-3.854212388341563,Normal,0.59,,,,None
2025-11-09_22:15:38,39.81768842888314,-104.6683761117058,247.3372139522191,85.02104075792866,103.1512547327437,-3.506458555893876,-8.27595885147371,-3.841207391439522,Normal,0.59,,,,None
2025-11-09_22:15:42,39.81742122709863,-104.6661589328927,231.1414209447186,85.02013993880173,95.84832027193487,-3.501878589333481,-8.276825694470567,-3.829749794574549,Normal,0.59,,,,None
2025-11-09_22:15:47,39.81736086546832,-104.6639022554008,215.1510801776476,85.01624778987599,88.56177519811534,-3.500779377303072,-8.278537787159957,-3.827945297399069,Normal,0.46,,,,None
2025-11-09_22:15:51,39.81750824139251,-104.661702729334,199.0719849877766,85.01400805613252,81.26179626753091,-3.503200412072914,-8.280510985017871,-3.834307913561713,Normal,0.46,,,,None
2025-11-09_22:15:55,39.81790592235204,-104.6592461226091,181.3366008840985,85.01519490869174,73.29657512827019,-3.506572617779253,-8.28200947212685,-3.839960084419706,Normal,0.46,,,,None
2025-11-09_22:16:00,39.81848564278091,-104.6571292732641,165.2092115201128,85.02008176211385,65.95558904332718,-3.507214411607241,-8.282449036629906,-3.839502966359877,Normal,0.46,,,,None
2025-11-09_22:16:04,39.81925223985447,-104.6551149792722,149.1156382543458,85.02067833105014,58.70315633630663,-3.50693377537362,-8.282703191786805,-3.838225830039199,Normal,0.46,,,,None
2025-11-09_22:16:08,39.82017825304277,-104.6532523531436,132.9940347240179,85.0196563007813,51.38022563382037,-3.508252521036561,-8.283142987286041,-3.841600509714451,Normal,0.445,,,,None
2025-11-09_22:16:12,39.82131525836256,-104.6515138429397,116.8899391639495,85.01792760498105,44.07294774513695,-3.511486730213738,-8.283562782530161,-3.849585296709304,FuelLeak,0.415,,,,None
2025-11-09_22:16:16,39.82255195045376,-104.6499924637141,100.6563346590441,85.01863463728112,36.7958223432716,-3.515845683026713,-8.283573035974431,-3.859534556777826,FuelLeak,0.405,,,,None
2025-11-09_22:16:21,39.82387565283471,-104.6487141988706,84.702834359371,85.02077119767011,29.17243200660869,-3.520207020462475,-8.283024809794522,-3.868925661102796,FuelLeak,0.405,,,,None
2025-11-09_22:16:25,39.82536236479788,-104.6475789576356,67.48650563091994,85.02210692892521,21.86986841711094,-3.523195452379237,-8.281387534075526,-3.875353694179222,FuelLeak,0.405,,,,None
2025-11-09_22:16:29,39.82711642410247,-104.646758761655,51.14480337320497,85.02300627005458,14.68336914489905,-3.525945899694638,-8.279695900379712,-3.881650954169901,FuelLeak,0.405,,,,None
2025-11-09_22:16:34,39.8288522791399,-104.64618479931,34.06808637386793,85.02067436278148,7.121366818427407,-3.507094808383256,-8.279753396024079,-3.747712661197144,FuelLeak,0.405,,,,None
2025-11-09_22:16:38,39.8305218232011,-104.6459157268066,18.50410052987893,85.0076155277336,359.6173275009433,-3.239714016467681,-8.320499403631102,-2.713757685242824,Normal,0.59,,,,None
2025-11-09_22:16:42,39.8322129001281,-104.6459194055644,7.997292166331742,85.04796191088427,350.9678456395422,-1.896063657032245,-8.553179745410253,1.032956651421638,Normal,0.48,,,,None
2025-11-09_22:16:47,39.83409910739078,-104.6462650425681,11.0420429605082,83.65047336099565,343.1375154844949,-1.429043347093297,-8.979755582986902,0.7564278986256818,Normal,0.48,,,,None
2025-11-09_22:16:51,39.83564910351257,-104.6468383626865,12.59651357446072,82.59992377474666,333.7803761654794,-3.003866662576677,-9.525962127280982,-2.927014758410635,Normal,0.59,,,,None
2025-11-09_22:16:56,0.0,39.83727600999052,-104.6478857484375,19.4347250577455,45.65739467608604,231.0761344327553,-25.46258763720642,170.3884189058502,FuelLeak,0.645,,,,None
2025-11-09_22:17:01,1.438017722587655,0.0,39.83777030196051,-104.6483489304066,-1.189504291156195,5.073924909736379,279.3717898801501,-26.26681473003902,FuelLeak,0.775,,,,None
2025-11-09_22:17:03,-179.2678025951155,0.001946387920516702,0.0,39.83777030092445,-104.6483489409455,-1.184345841654947,5.067174224135412,279.3863912044189,FuelLeak,0.685,,,,None
2025-11-09_22:17:05,-26.26916073547719,-179.2499101133608,-6.185556553848527,0.0,39.8377703019441,-104.6483489365838,-1.183254456971198,5.065960047196437,FuelLeak,0.615,,,,None
2025-11-09_22:17:06,279.3882486987329,-26.27269769527589,-179.2712500207116,8.665151346884803,0.0,39.83777030350102,-104.6483489307738,-1.182352195568309,EngineFailure,0.63,,,,None
2025-11-09_22:17:08,5.065971005056545,279.3697783144784,-26.27690670575341,-179.2589913426194,8.666354280935915,0.0,0.0,39.83777030423606,FuelLeak,0.78,,,,None
2025-11-09_22:17:11,-104.6483489280238,-1.18192574343801,5.065973597325259,279.3610521127503,-26.27921645197092,-179.2556746485226,8.663825046159927,0.0,FuelLeak,0.605,,,,None
2025-11-09_22:17:13,39.83777030714388,-104.6483489171505,-1.18024154727786,5.065974744995988,279.326505341621,-26.28834660092342,-179.2336998918014,8.756544283860732,EngineFailure,0.48,,,,None
2025-11-09_22:17:14,0.0,39.83777030819445,-104.6483489133403,-1.179684727710738,5.067383907969585,279.3147038375221,-26.2917152038703,-179.2262406185985,FuelLeak,0.67,,,,None
2025-11-09_22:17:15,0.001017105932525245,39.83777030920698,-104.6483489095558,-1.179100184300064,5.067386262059849,279.3026596166907,-26.29488859165176,-179.2185292431072,FuelLeak,0.67,,,,None
2025-11-09_22:17:16,0.001016345771329916,0.0,39.83777031065475,-104.6483489040275,-1.178215017367454,5.065981939303816,279.2847373853401,-26.29934617955404,FuelLeak,0.775,,,,None
2025-11-09_22:17:17,-179.2069464488762,8.681815181912835,0.0,39.83777031181314,-104.6483488996954,-1.177548228337838,5.065983688111871,279.2709384747197,FuelLeak,0.685,,,,None
2025-11-09_22:17:19,-26.30296990409543,-179.198075926366,8.586245266141315,0.0,39.83777031310658,-104.6483488949724,-1.176854894955214,5.067392414573818,FuelLeak,0.595,,,,None
2025-11-09_22:17:20,279.2562094221386,-26.30708528369252,-179.1886757089957,0.001009346554167439,0.0,39.83777031409512,-104.6483488911543,-1.176237444456595,EngineFailure,0.63,,,,None
2025-11-09_22:17:21,5.065986385038807,279.2437242286882,-26.31009654188758,-179.1805481478885,8.544646505995992,0.0,39.83777031526749,-104.648348886762,FuelLeak,0.805,,,,None
2025-11-09_22:17:22,-1.175565811838638,5.065989343745798,279.2297269605108,-26.3137513531317,-179.1715183357908,8.387960774704228,0.0,39.83777031644418,FuelLeak,0.755,,,,None
2025-11-09_22:17:23,-104.6483488824667,-1.174942687222852,5.067398123757287,279.2163584599992,-26.3174890236591,-179.162969861033,0.001002954197207139,0.0,FuelLeak,0.605,,,,None
2025-11-09_22:17:24,39.83777031757633,-104.6483488780992,-1.174246643571044,5.065993173665015,279.2021240389951,-26.32093420518434,-179.1536962379018,8.238154237731187,EngineFailure,0.48,,,,None
2025-11-09_22:17:26,0.0,39.83777031878323,-104.648348873681,-1.173608778813216,5.067402473440421,279.1883689935407,-26.32475498437992,-179.1448920422094,FuelLeak,0.67,,,,None
2025-11-09_22:17:27,0.00099804345398854,0.0,39.83777031977239,-104.6483488699588,-1.173046338636371,5.067404038466496,279.176515823407,-26.32782023747128,FuelLeak,0.775,,,,None
2025-11-09_22:17:28,-179.1372357834461,0.000997296483894167,39.83777032088446,-104.648348865651,-1.172365830759272,5.065998208589273,279.1624824927571,-26.33118492278988,FuelLeak,0.775,,,,None
2025-11-09_22:17:29,-179.1280892202265,7.89519924569073,0.0,39.837770322017,-104.6483488613779,-1.17172501378549,5.066000186234273,279.1488834042497,FuelLeak,0.685,,,,None
2025-11-09_22:17:30,-26.33468101625325,-179.1193055093841,7.75524512443888,0.0,39.83777032338998,-104.6483488561879,-1.170950067567796,5.066003061652398,FuelLeak,0.595,,,,None
2025-11-09_22:17:31,279.1323773753041,-26.33890907301092,-179.1086533759209,7.361118360630432,0.0,39.83777032434166,-104.6483488525845,-1.170414530011307,EngineFailure,0.63,,,,None
2025-11-09_22:17:33,5.066004844302459,279.1209229082891,-26.34183265958272,-179.1012645882649,7.243373175348019,0.0,39.8377703255557,-104.6483488480989,FuelLeak,0.805,,,,None
2025-11-09_22:17:34,-1.169782116035172,5.067413458809857,279.1069899941414,-26.34563098867126,-179.0923663044103,0.0009826941106168474,0.0,39.83777032674574,FuelLeak,0.755,,,,None
2025-11-09_22:17:35,-104.648348843576,-1.16911620173621,5.067413795914566,279.0926310314507,-26.34926761695104,-179.0831209312473,0.0009790312174212106,0.0,FuelLeak,0.605,,,,None
2025-11-09_22:17:36,39.83777032788583,-104.6483488392343,-1.168480668042507,5.067415584443283,279.0788576334895,-26.35274009253653,-179.0742609737396,0.0009769991017755456,EngineFailure,0.48,,,,None
2025-11-09_22:17:37,0.0,39.83777032907194,-104.6483488347064,-1.167821609677666,5.067416354084661,279.0645058551868,-26.35634103551832,-179.0650437302713,FuelLeak,0.67,,,,None
2025-11-09_22:17:38,0.0009732616820205874,0.0,39.83777032996218,-104.6483488311798,-1.167280567832019,5.06601536806682,279.0530209938882,-26.35895506847833,FuelLeak,0.775,,,,None
2025-11-09_22:17:39,-179.057594334201,6.133527828481656,0.0,39.83777033108063,-104.6483488268921,-1.166663757096517,5.066017501718351,279.0394531663496,FuelLeak,0.685,,,,None
2025-11-09_22:17:41,-26.3623268573092,-179.0489035627747,5.84580587494253,39.83777033231497,-104.6483488222703,-1.16603420227988,5.067420489736727,279.0251558162732,FuelLeak,0.685,,,,None
2025-11-09_22:17:42,-26.36611370448751,-179.0398408725666,0.0009624128009342263,0.0,39.83777033327029,-104.6483488185897,-1.165512048567642,5.067420963973797,FuelLeak,0.595,,,,None
2025-11-09_22:17:43,279.0135308842173,-26.36896888951297,-179.0324189966207,0.0009595184038798473,0.0,39.83777033444632,-104.6483488140473,-1.164872322680765,EngineFailure,0.63,,,,None
2025-11-09_22:17:44,5.067421799520548,278.999199558325,-26.37246762138235,-179.0232863089937,0.0009558563065457841,0.0,39.83777033534424,-104.6483488104463,FuelLeak,0.805,,,,None
2025-11-09_22:17:45,-1.164338976603724,5.066024239385276,278.9875370463121,-26.37504081177192,-179.0157859213838,4.584266385959288,0.0,39.83777033648435,FuelLeak,0.755,,,,None
2025-11-09_22:17:46,-104.6483488060191,-1.163725297217842,5.066028213160935,278.9735999358959,-26.37839680517195,-179.0069389199772,4.170412334527848,0.0,FuelLeak,0.605,,,,None
2025-11-09_22:17:47,39.83777033767619,-104.648348801502,-1.163134842396045,5.067422249935405,278.959705574423,-26.38197049243268,-178.9982198003143,0.0009431770502619998,EngineFailure,0.48,,,,None
2025-11-09_22:17:48,0.0,39.83777033875797,-104.6483487971502,-1.162513474220788,5.066031917291232,278.9457298474926,-26.38502401366253,-178.9893070617935,FuelLeak,0.67,,,,None
2025-11-09_22:17:50,3.405948290828359,0.0,39.83777033989114,-104.6483487927084,-1.161915970372727,5.066034399255509,278.9317997220099,-26.38829064286103,FuelLeak,0.775,,,,None
2025-11-09_22:17:51,-178.9805266400494,2.840742988312935,0.0,39.83777034083366,-104.6483487890028,-1.161422715341748,5.066034372789923,278.9201931833232,FuelLeak,0.685,,,,None
2025-11-09_22:17:52,-26.39098719397053,-178.9732278515953,2.531515962661264,0.0,39.83777034193102,-104.6483487846747,-1.16085262592453,5.066036241873591,FuelLeak,0.595,,,,None
2025-11-09_22:17:53,278.9066560143414,-26.39410107536547,-178.9647370839252,1.915291141201805,39.83777034304183,-104.6483487802785,-1.160281075521011,5.066037918841491,FuelLeak,0.66,,,,None
2025-11-09_22:17:55,278.8929238877047,-26.3972233914258,-178.9561452236902,1.416802308298599,0.0,39.83777034399426,-104.6483487764966,-1.159795541849163,EngineFailure,0.63,,,,None
2025-11-09_22:17:56,5.066041612320939,278.8811276802595,-26.39987467553372,-178.9487841230418,8.373424653523928,0.0,39.84083587737727,-104.6530149833274,FuelLeak,0.805,,,,None
2025-11-09_22:17:58,-1.038433286912709,5.071410457458891,279.0200835887982,-26.30188107062145,-179.5821351721491,0.01166649947046712,0.0,39.84083587355713,FuelLeak,0.755,,,,None
2025-11-09_22:17:59,-104.6530149810303,-1.035141263114148,5.066183589123654,279.0650191170764,-26.30590457533224,-179.6982569132189,-0.0001126538692365674,0.0,FuelLeak,0.605,,,,None
2025-11-09_22:18:00,39.84083587379117,-104.6530149791407,-1.03499237043777,5.067649941240259,279.0621536654259,-26.30766841970397,-179.7012882309769,0.0007896033526715984,EngineFailure,0.48,,,,None
2025-11-09_22:18:01,0.0,39.84083587429343,-104.6530149740331,-1.034541055870073,5.067649588574134,279.0538960243662,-26.31192762961471,-179.7096286802991,FuelLeak,0.67,,,,None
2025-11-09_22:18:03,0.0007832190004505114,0.0,39.840835874855,-104.653014967727,-1.033975118997013,5.066181032248814,279.0435909918918,-26.31691049320906,FuelLeak,0.775,,,,None
2025-11-09_22:18:04,-179.7201492040022,-0.000163125328852446,0.0,39.84083587539949,-104.6530149620704,-1.033506505231779,5.066182360907212,279.03451835968,FuelLeak,0.685,,,,None
2025-11-09_22:18:05,-26.32143293972386,-179.7295159005785,-0.0001744469550307065,0.0,39.84083587577338,-104.6530149567751,-1.033107639616277,5.067645622204865,FuelLeak,0.595,,,,None
2025-11-09_22:18:06,279.0261964613208,-26.32574899084045,-179.7381713043302,0.0007597059803282472,0.0,39.84083587638388,-104.6530149522641,-1.03276015512998,EngineFailure,0.63,,,,None
2025-11-09_22:18:08,5.067645687053691,279.0190000259195,-26.32919110790165,-179.7456955111098,0.0007514014174151705,39.84083587678715,-104.6530149479787,-1.03244193922951,EngineFailure,0.62,,,,None
2025-11-09_22:18:09,5.067643975533309,279.0121752138543,-26.33238483273934,-179.7528537365061,0.000742203559140657,0.0,39.84083587707318,-104.6530149443643,FuelLeak,0.805,,,,None
2025-11-09_22:18:10,-1.03216008049137,5.066186242267679,279.0062826162849,-26.33482841462402,-179.759044685062,-0.000215644718828498,0.0,39.84083587740847,FuelLeak,0.755,,,,None
2025-11-09_22:18:11,-104.6530149407685,-1.031912217607674,5.066187921631043,279.0005683249311,-26.33738806823737,-179.7650497576642,-0.0002262134806898945,0.0,FuelLeak,0.605,,,,None
2025-11-09_22:18:12,39.84083587796199,-104.6530149347991,-1.031521980653235,5.066188676692344,278.991090612798,-26.34150206493374,-179.7750064722344,-0.0002438785673848774,EngineFailure,0.48,,,,None
2025-11-09_22:18:13,0.0,39.84083587836691,-104.6530149304128,-1.031253140515078,5.066188834234487,278.9841289843491,-26.34441041612405,-179.7822995038585,FuelLeak,0.67,,,,None
2025-11-09_22:18:14,-0.0002576272371452813,0.0,39.84083587874416,-104.6530149263126,-1.031016474650984,5.066187393342165,278.9776211248561,-26.34703775967837,FuelLeak,0.775,,,,None
2025-11-09_22:18:16,-179.7890940650659,-0.00026974007778516,0.0,39.84083587914323,-104.6530149219628,-1.030781211613159,5.066188493931945,278.9707158837494,FuelLeak,0.685,,,,None
2025-11-09_22:18:17,-26.34972057795149,-179.7962717923473,-0.0002866530906598325,0.0,39.84083587948225,-104.6530149182586,-1.030594272799545,5.066187778999284,FuelLeak,0.595,,,,None
2025-11-09_22:18:18,278.9648311548782,-26.35191917193093,-179.8023535591529,-0.0002977991451430078,0.0,39.84083587987617,-104.6530149139452,-1.030392847420164,EngineFailure,0.63,,,,None
2025-11-09_22:18:20,5.066187086647889,278.95797385982,-26.35437333374207,-179.8093973324463,-0.0003150410263663128,0.0,39.84083588032,-104.6530149096503,FuelLeak,0.805,,,,None
2025-11-09_22:18:21,-1.030229814813375,5.06762249340861,278.9512811200776,-26.35691622151923,-179.8162251164451,0.0006455203361698606,39.84083588072071,-104.6530149052505,FuelLeak,0.78,,,,None
2025-11-09_22:18:22,-1.030061031316815,5.067618724729022,278.944268082417,-26.35917690315766,-179.8233064049398,0.0006319912112120645,0.0,39.84083588112235,FuelLeak,0.755,,,,None
2025-11-09_22:18:23,-104.653014900836,-1.02991169429581,5.06761399049776,278.9372197354128,-26.36131098906604,-179.8303494526926,0.0006173023291009979,0.0,FuelLeak,0.605,,,,None
2025-11-09_22:18:24,39.84083588138194,-104.6530148974061,-1.029791186168811,5.066183885462348,278.9315948210366,-26.36264643678172,-179.8359144192617,-0.0003806941293792478,EngineFailure,0.48,,,,None
2025-11-09_22:18:26,0.0,39.84083588186267,-104.6530148926924,-1.029690424624491,5.067606311106463,278.9241814435291,-26.3648787970486,-179.8431641318046,FuelLeak,0.67,,,,None
2025-11-09_22:18:27,0.0005896055672225693,0.0,39.84083588217913,-104.6530148892113,-1.029618040650303,5.067601716388045,278.918590469274,-26.36625108332351,FuelLeak,0.775,,,,None
2025-11-09_22:18:28,-179.8485624461663,0.0005782784312239856,0.0,39.84083588271015,-104.6530148827973,-1.029503039139857,5.066179222093218,278.9081242076026,FuelLeak,0.685,,,,None
2025-11-09_22:18:30,-26.36828391090763,-179.8585123238171,-0.0004467601208414476,0.0,39.84083588320188,-104.6530148779627,-1.029476971696581,5.067590242826472,FuelLeak,0.595,,,,None
2025-11-09_22:18:31,278.9004514895268,-26.37001865858655,-179.8656646372707,0.0005353820531219609,0.0,39.84083588355105,-104.6530148741246,-1.029462129189838,EngineFailure,0.63,,,,None
2025-11-09_22:18:32,5.067584390595972,278.894233266342,-26.37106133955707,-179.8713723178888,0.0005209164575685497,0.0,39.84083588399807,-104.6530148692128,FuelLeak,0.805,,,,None
2025-11-09_22:18:33,-1.02946810574157,5.067578665565705,278.8862538214067,-26.37220556749809,-179.8785770203737,0.0005025674247776736,0.0,39.84083588441305,FuelLeak,0.755,,,,None
2025-11-09_22:18:34,-104.6530148646525,-1.029498760868808,5.067570921606606,278.8788245443731,-26.37307257601888,-179.8851697818494,0.0004846673077947505,39.84083588465275,FuelLeak,0.605,,,,None
2025-11-09_22:18:36,-104.6530148620188,-1.029527529276132,5.067567119289455,278.8745242829849,-26.37348454908639,-179.8889325703617,0.0004734239307824576,0.0,FuelLeak,0.605,,,,None
2025-11-09_22:18:37,39.84083588517269,-104.6530148557383,-1.02961483252872,5.066168781324043,278.8641050396915,-26.37392559094022,-179.8978887055019,-0.0005782958988186545,EngineFailure,0.48,,,,None
2025-11-09_22:18:38,0.0,39.84083588562819,-104.6530148507268,-1.029727938013674,5.066167238833439,278.8558760346876,-26.37421287702484,-179.9048184707474,FuelLeak,0.67,,,,None
2025-11-09_22:18:39,-0.0006044460340385407,0.0,39.84083588612101,-104.6530148458586,-1.0298768516278,5.067540609683146,278.8480018950978,-26.37453684580263,FuelLeak,0.775,,,,None
2025-11-09_22:18:40,-179.9113467373052,0.0004134110132904086,0.0,39.84083588654947,-104.6530148405482,-1.030041612758548,5.066160315335107,278.8391118139367,FuelLeak,0.685,,,,None
2025-11-09_22:18:41,-26.37400850637606,-179.9185887040352,-0.0006534574643956759,0.0,39.84083588697959,-104.6530148357662,-1.030225636578324,5.066159515490148,FuelLeak,0.595,,,,None
2025-11-09_22:18:42,278.8312216199959,-26.37353523898633,-179.9249365033797,-0.0006752044642631275,0.0,39.84083588740956,-104.6530148309538,-1.030432196348417,EngineFailure,0.63,,,,None
2025-11-09_22:18:44,5.06615798800311,278.8232795470121,-26.37280814249362,-179.9312654818094,-0.0006978716131982597,0.0,39.84083588787357,-104.6530148262921,FuelLeak,0.805,,,,None
2025-11-09_22:18:45,-1.030661943464109,5.06750325838818,278.8157242277722,-26.3721742538861,-179.9372609467781,0.0003500965787291979,0.0,39.84083588829461,FuelLeak,0.755,,,,None
2025-11-09_22:18:46,-104.6530148214838,-1.030904192716374,5.067492782193815,278.8078116840055,-26.3709436312885,-179.9435312248503,0.0003402357891997294,0.0,FuelLeak,0.605,,,,None
2025-11-09_22:18:47,39.84083588865001,-104.6530148173729,-1.031122756770929,5.067483225394017,278.8010658214061,-26.36968063117331,-179.9488928251107,0.0003321497002845835,EngineFailure,0.48,,,,None
2025-11-09_22:18:48,39.84083588904199,-104.6530148127689,-1.031377315067595,5.067474437010469,278.7935436856019,-26.36802922288829,-179.954923335467,0.0003267023223361821,EngineFailure,0.48,,,,None
2025-11-09_22:18:50,0.0,39.8408358893323,-104.6530148086803,-1.031598826685794,5.066150500241563,278.7867816007387,-26.36600839907915,-179.9604281069755,FuelLeak,0.67,,,,None
2025-11-09_22:18:51,-0.0007699531394972861,0.0,39.8408358897858,-104.6530148037337,-1.031893022385321,5.067453672995399,278.7789426464686,-26.36404236942015,FuelLeak,0.775,,,,None
2025-11-09_22:18:52,-179.9669855093452,0.0003280831059995821,0.0,39.84083589010442,-104.6530147990349,-1.03214929757383,5.066150404018352,278.7713518839437,FuelLeak,0.685,,,,None
2025-11-09_22:18:53,-26.36120890521037,-179.9735571143566,-0.000776003291188828,0.0,39.84083589048752,-104.6530147939468,-1.032428390208478,5.066151301382429,FuelLeak,0.595,,,,None
2025-11-09_22:18:54,278.7633915813875,-26.35819304042101,-179.9808101167195,-0.0007706944059952389,0.0,39.84083589084027,-104.6530147895146,-1.032663999881694,EngineFailure,0.63,,,,None
2025-11-09_22:18:55,5.066143427950534,278.7569739669497,-26.35519651316255,-179.9887154675702,-0.0008263621815429042,0.0,39.84083589363553,-104.653014785825,FuelLeak,0.805,,,,None
2025-11-09_22:18:57,-1.033172139382223,5.067248302797828,278.7506375854486,-26.35401250537585,-179.9828141231671,5.425410106945353,0.0,39.84083589678373,FuelLeak,0.755,,,,None
2025-11-09_22:18:58,-104.6530147827109,-1.03387133777156,5.065844146434082,278.7426557871155,-26.35294349188788,-179.9716375877735,-0.001008131802574324,0.0,FuelLeak,0.605,,,,None
2025-11-09_22:18:59,39.84083589924017,-104.6530147800479,-1.034427615383347,5.067231577124078,278.7363001600009,-26.35239385689254,-179.9626218279835,-0.0008184585340568635,EngineFailure,0.48,,,,None
2025-11-09_22:19:00,39.84083590183055,-104.6530147775267,-1.034982331972878,5.067363012872101,278.7303819114578,-26.35193203265602,-179.9539185579158,5.469239250163258,EngineFailure,0.48,,,,None
2025-11-09_22:19:01,39.84083590590343,-104.6530147732485,-1.035886487234665,5.066430012326748,278.7200915845011,-26.35034341386305,-179.9398078827107,-0.0001935992051006602,EngineFailure,0.48,,,,None
2025-11-09_22:19:02,0.0,39.84083590904859,-104.6530147694695,-1.036578748264259,5.067104318791777,278.7122580816818,-26.34887103482734,-179.9288472745831,FuelLeak,0.67,,,,None
2025-11-09_22:19:04,-0.0007629498699610335,0.0,39.84083591208247,-104.6530147659694,-1.037239167696656,5.067148137124144,278.7052560696896,-26.3476886378525,FuelLeak,0.775,,,,None
2025-11-09_22:19:05,-179.9189093806573,3.717003056628659,0.0,39.84083591514982,-104.6530147626785,-1.037876155510228,5.066549924061709,278.6980243567857,FuelLeak,0.685,,,,None
2025-11-09_22:19:06,-26.34601415973163,-179.9091257737058,-0.0004833631102400519,0.0,39.84083591807617,-104.6530147589379,-1.038500161946402,5.06734912354977,FuelLeak,0.595,,,,None
2025-11-09_22:19:07,278.6913008364903,-26.34460527824147,-179.8997891379208,9.673313222148058,0.0,39.84083592038437,-104.6530147560884,-1.038987052002267,EngineFailure,0.63,,,,None
2025-11-09_22:19:09,5.067110514981068,278.6858415875115,-26.343242175125,-179.8923846411207,3.030241690379413,0.0,39.84083592326253,-104.6530147526661,FuelLeak,0.805,,,,None
2025-11-09_22:19:10,-1.039562776089635,5.067440418583883,278.6794755893497,-26.34157267572726,-179.8839991300656,0.0001368855573425743,0.0,39.8408359261283,FuelLeak,0.755,,,,None
2025-11-09_22:19:11,-104.6530147492301,-1.040131609345492,5.066100477589261,278.6729849526816,-26.339484438966,-179.8752447031894,-0.0008163301064940164,0.0,FuelLeak,0.605,,,,None
2025-11-09_22:19:12,39.8408359294265,-104.6530147450579,-1.040787134007651,5.066529464848911,278.665751473286,-26.33734693281664,-179.8657858494211,-0.0006296299420555267,EngineFailure,0.48,,,,None
2025-11-09_22:19:13,39.84083593211172,-104.653014741458,-1.041315257384837,5.065667203474903,278.6599427477663,-26.33534787929599,-179.8581163025882,-0.001031062964292757,EngineFailure,0.48,,,,None
2025-11-09_22:19:14,39.84083593451899,-104.6530147382244,-1.041786890832659,5.06723108513386,278.654742213387,-26.33397501089059,-179.8518160960526,0.0001407529569466168,EngineFailure,0.48,,,,None
2025-11-09_22:19:15,39.84083593613958,-104.6530147361004,-1.042090873746357,5.06723148111313,278.651351211182,-26.33280788871029,-179.8475295355369,0.0001505287238899538,EngineFailure,0.48,,,,None
2025-11-09_22:19:16,0.0,39.84083593952523,-104.6530147317432,-1.042699825972331,5.065770434653158,278.6444226008299,-26.33002890549493,-179.8386068415452,FuelLeak,0.67,,,,None
2025-11-09_22:19:18,-0.0008852205792274142,0.0,39.84083594224155,-104.6530147281224,-1.043199178615797,5.066571103487764,278.6388276416122,-26.32817140647334,FuelLeak,0.775,,,,None
2025-11-09_22:19:19,-179.8320175633938,-6.995240378842411,0.0,39.8408359444205,-104.6530147248915,-1.043594696525002,5.066657785710219,278.634274686316,FuelLeak,0.685,,,,None
2025-11-09_22:19:20,-26.32645410758641,-179.8264259458677,-0.0001254847318821677,0.0,39.84083594803425,-104.6530147203845,-1.044170632315882,5.066579814577345,FuelLeak,0.595,,,,None
2025-11-09_22:19:22,278.627568851974,-26.32368213028813,-179.818702043213,-0.0005393367541332919,0.0,39.84083595061411,-104.6530147167429,-1.044592401454943,EngineFailure,0.63,,,,None
2025-11-09_22:19:23,5.065810656895114,278.6226838088835,-26.32151695396088,-179.8131013661225,-0.0009666086175472174,0.0,39.84083595280721,-104.6530147136244,FuelLeak,0.805,,,,None
2025-11-09_22:19:24,-1.044946783752144,5.067587330875443,278.6182757663869,-26.31980476806508,-179.8085535540236,-0.0008819234133903453,0.0,39.8408359549301,FuelLeak,0.755,,,,None
2025-11-09_22:19:25,-104.6530147107282,-1.045271464750932,5.066153114568458,278.6144829491147,-26.31814325231611,-179.8043954995717,-0.0009172196083751727,0.0,FuelLeak,0.605,,,,None
2025-11-09_22:19:27,39.84083595805595,-104.6530147063467,-1.045746076005798,5.067249762082502,278.6088042311143,-26.31606575862303,-179.7987428316074,0.000240477263185195,EngineFailure,0.48,,,,None
2025-11-09_22:19:28,39.84083596047866,-104.6530147030504,-1.046096503403092,5.066605760073108,278.6044503669872,-26.31406623894001,-179.7943535940477,2.550009742568007,EngineFailure,0.48,,,,None
2025-11-09_22:19:29,39.84083596307489,-104.6530146991875,-1.046453468017326,5.067344842556049,278.6001090306302,-26.31216373695309,-179.7900558277595,0.0002784292986160468,EngineFailure,0.48,,,,None
2025-11-09_22:19:30,39.84083596523826,-104.6530146961925,-1.04673442643428,5.067470702060278,278.5964238102344,-26.31052589135399,-179.786820779817,0.0003247175539458117,EngineFailure,0.48,,,,None
2025-11-09_22:19:31,39.84083596719045,-104.6530146935143,-1.046971373794332,5.065815922481858,278.593078435782,-26.30873002278885,-179.7837243870149,-0.0007180903724299794,EngineFailure,0.48,,,,None
2025-11-09_22:19:32,0.0,39.84083596920475,-104.65301469075,-1.047218289828602,5.066699741319232,278.5897952519366,-26.30736240998522,-179.7809820751688,FuelLeak,0.67,,,,None
2025-11-09_22:19:33,-0.0002326076056066096,0.0,39.84083597231163,-104.6530146859512,-1.047585667461718,5.065825183813899,278.5836554260677,-26.30432672231675,FuelLeak,0.775,,,,None
2025-11-09_22:19:34,-179.7758564150714,-0.0006790279124348844,0.0,39.84083597554078,-104.6530146814554,-1.047909394631769,5.067623418742703,278.5797758374079,FuelLeak,0.685,,,,None
2025-11-09_22:19:36,-26.30249329367171,-179.7730894426487,-0.0007309928235947729,0.0,39.84083597813718,-104.653014677682,-1.04817313294921,5.067374442035679,FuelLeak,0.595,,,,None
2025-11-09_22:19:37,278.5761904846423,-26.30100378017438,-179.7704116787382,0.0003740410600433091,0.0,39.84940325094819,-104.6739569050116,-1.263727625479931,EngineFailure,0.63,,,,None
2025-11-09_22:19:38,4.992827314219478,278.0974368380802,-25.09139718268196,-179.6671540452881,1.189526264819381,0.0,39.84940326379114,-104.6739569147227,FuelLeak,0.805,,,,None
2025-11-09_22:19:39,-0.7473519259896518,5.065013493552347,278.0545532545073,-26.07561495010505,-179.5698793634993,-0.0009101692940810221,0.0,39.84940326590737,FuelLeak,0.755,,,,None
2025-11-09_22:19:40,-104.6739569117688,-0.7471751116326004,5.065827410322707,278.0339309315816,-26.07983654632238,-179.5400593072484,-0.0001349790592476477,0.0,FuelLeak,0.605,,,,None
2025-11-09_22:19:41,39.84940326747174,-104.6739569052578,-0.7465174835697925,5.065848148351863,278.0177867064855,-26.08926243925737,-179.5406956019285,-0.0001257040723602308,EngineFailure,0.48,,,,None
2025-11-09_22:19:42,39.84940326823889,-104.6739569020562,-0.7461922766415382,5.06585034397294,278.0098490451985,-26.09389517338807,-179.5410096382196,-0.0001249730246871437,EngineFailure,0.48,,,,None
2025-11-09_22:19:44,39.84940326914229,-104.6739568982796,-0.7458083161563298,5.065851083070381,278.0004838147291,-26.09934955038622,-179.5413764229394,-0.000125500821411455,EngineFailure,0.48,,,,None
2025-11-09_22:19:45,39.84940327027714,-104.6739568935249,-0.7453264881346359,5.065851201738303,277.9886919214019,-26.10618996251986,-179.5418311220206,-0.0001262227685346141,EngineFailure,0.48,,,,None
2025-11-09_22:19:46,39.84940327114457,-104.6739568900514,-0.7450031283782024,5.067303587794575,277.9803180708016,-26.11127574329311,-179.5421992272684,0.0008256715710893769,EngineFailure,0.48,,,,None
2025-11-09_22:19:47,39.84940327214058,-104.6739568858589,-0.7445848207334274,5.067302180484671,277.9699228917758,-26.11723295417356,-179.5425903509719,0.0008212994943544722,EngineFailure,0.48,,,,None
2025-11-09_22:19:48,0.0,39.84940327294463,-104.6739568824647,-0.7442504384328266,5.067301023432137,277.9615111108095,-26.12201401432505,-179.5429054938745,FuelLeak,0.67,,,,None
2025-11-09_22:19:50,0.0008169999926028229,0.0,39.84940327391117,-104.6739568783738,-0.7438542712593067,5.067299681741701,277.9513770853396,-26.12771667417917,FuelLeak,0.775,,,,None
2025-11-09_22:19:51,-179.5432792543611,0.0008114871682065285,0.0,39.84940327483582,-104.6739568744473,-0.743482447670027,5.067297375352434,277.9416543662775,FuelLeak,0.685,,,,None
2025-11-09_22:19:52,-26.13311691629522,-179.5436314505481,0.00080447822599456,0.0,39.84940327584706,-104.6739568699624,-0.7430452053509262,5.065857934352286,FuelLeak,0.595,,,,None
2025-11-09_22:19:53,277.9303274377046,-26.13905180881373,-179.5439943807038,-0.0001648360044628765,0.0,39.84940327687031,-104.6739568657531,-0.7426989281013451,EngineFailure,0.63,,,,None
2025-11-09_22:19:54,5.067292405901328,277.9201670504262,-26.14475420664906,-179.5444167906509,0.0007824861183957103,0.0,39.84940327778312,-104.6739568616481,FuelLeak,0.805,,,,None
2025-11-09_22:19:55,-0.7423290005385512,5.065860803570156,277.9098133529716,-26.1499188860051,-179.5447497385477,-0.0001930205388358133,0.0,39.84940327859326,FuelLeak,0.755,,,,None
2025-11-09_22:19:57,-104.6739568581431,-0.7420500706150522,5.0658582066888,277.9011863213176,-26.15432493619646,-179.5450682684481,-0.0002063982558380141,0.0,FuelLeak,0.605,,,,None
2025-11-09_22:19:58,39.84940327961058,-104.6739568538952,-0.7417579476041924,5.067283526832976,277.8909886819216,-26.15964232347624,-179.5455085521497,0.0007343835782870206,EngineFailure,0.48,,,,None
2025-11-09_22:19:59,39.84940328039005,-104.673956850483,-0.7415251062460032,5.067283256154856,277.8826342219603,-26.16364384420092,-179.5458350668538,0.0007137261717198502,EngineFailure,0.48,,,,None
2025-11-09_22:20:00,39.84940328132087,-104.6739568461952,-0.7412423842695358,5.065856609444524,277.8719412971556,-26.16828095192927,-179.5462184524003,-0.0002802307820319452,EngineFailure,0.48,,,,None
2025-11-09_22:20:01,39.84940328198311,-104.6739568434377,-0.7411173186402383,5.067272847714574,277.8654609340282,-26.17137489066034,-179.5465390262745,0.0006623731241797271,EngineFailure,0.48,,,,None
2025-11-09_22:20:02,39.84940328345967,-104.6739568367997,-0.740849711368192,5.067263858269571,277.8494166002236,-26.1778247443,-179.5472642599619,0.0005932016467345175,EngineFailure,0.48,,,,None
2025-11-09_22:20:04,39.8494032844242,-104.6739568323904,-0.7407550473022555,5.067253639413837,277.8388557156033,-26.18152351501301,-179.5477925581071,0.0005324982399746705,EngineFailure,0.48,,,,None
2025-11-09_22:20:05,39.84940328522503,-104.6739568286715,-0.7407418798054616,5.067242429704823,277.8300282175389,-26.18417915774895,-179.5482806144548,0.0004663340447619685,EngineFailure,0.48,,,,None
2025-11-09_22:20:06,0.0,39.84940328614972,-104.6739568242924,-0.7408260610550992,5.06722608436502,277.8197523901272,-26.18661715454991,-179.5489164526253,FuelLeak,0.67,,,,None
2025-11-09_22:20:07,0.0003644204038231049,0.0,39.84940328701236,-104.6739568200969,-0.7410381740747123,5.067210344855428,277.8100724433943,-26.18804869053769,FuelLeak,0.775,,,,None
2025-11-09_22:20:08,-179.5496145323173,0.0002281240174859665,0.0,39.8494032879991,-104.6739568151011,-0.7415259484077863,5.067179498131682,277.798834226811,FuelLeak,0.685,,,,None
2025-11-09_22:20:09,-26.18815702269272,-179.5506032978855,-1.591169149868792,0.0,39.84940328887107,-104.6739568103929,-0.7423343885112264,5.067134277459489,FuelLeak,0.595,,,,None
2025-11-09_22:20:10,277.7886783725187,-26.18590228157636,-179.5517687859869,-0.0004031513257341363,0.0,39.84940328958488,-104.6739568061344,-0.7435314326199898,EngineFailure,0.63,,,,None
2025-11-09_22:20:12,5.06706503388474,277.7800728755471,-26.18073633879469,-179.5531277342438,-0.001035675571659701,0.0,39.84940329027131,-104.673956801144,FuelLeak,0.805,,,,None
2025-11-09_22:20:13,-0.7459023451125031,5.066897718087794,277.7711779989269,-26.1682201760821,-179.555303849835,-0.002604877117814378,0.0,39.84940329085379,FuelLeak,0.755,,,,None
2025-11-09_22:20:14,-104.6739567917831,-0.7551395325769037,5.066231050270297,277.7601765247589,-26.11314817210661,-179.5618447668796,-0.009219265571753121,0.0,FuelLeak,0.605,,,,None
2025-11-09_22:20:15,39.84940329121217,-104.6739567846531,-0.7626600692922686,5.066895130030935,277.7522985452547,-26.06861022347629,-179.5672154189016,-0.00191969156886755,EngineFailure,0.48,,,,None
2025-11-09_22:20:16,39.84940329215213,-104.673956779309,-0.7637891681868451,5.067095715546567,277.7411232278749,-26.06438858945553,-179.5692412992778,0.000221277966675007,EngineFailure,0.48,,,,None
2025-11-09_22:20:17,39.84940329292054,-104.673956775472,-0.7639786940639277,5.067114580131164,277.7323798291362,-26.06538968969512,-179.5704429220131,0.0004222894551735505,EngineFailure,0.48,,,,None
2025-11-09_22:20:18,39.84940329362504,-104.673956771834,-0.7639953186103077,5.065804516316776,277.7237518268468,-26.06748423842917,-179.5717758049214,-0.0004695761974529005,EngineFailure,0.48,,,,None
2025-11-09_22:20:19,39.84940329463353,-104.6739567672137,-0.7639077803469863,5.067135705523722,277.7130930798696,-26.07049418576159,-179.5729757253003,0.0006629738776054624,EngineFailure,0.48,,,,None
2025-11-09_22:20:21,39.84940329545154,-104.6739567631568,-0.7636900025121144,5.065823637143186,277.7032692374352,-26.07375805146357,-179.5741846858997,-0.0003023082449467362,EngineFailure,0.48,,,,None
2025-11-09_22:20:22,39.84940329636256,-104.6739567590936,-0.7634405156698675,5.067147275072494,277.6937578344492,-26.07786870016691,-179.5754259245297,0.0008017700743692284,EngineFailure,0.48,,,,None
2025-11-09_22:20:23,39.84940329729629,-104.6739567547596,-0.7630814617608166,5.067153181110794,277.6833401812185,-26.08242332775604,-179.5767240466568,0.0008567791671750875,EngineFailure,0.48,,,,None
2025-11-09_22:20:24,0.0,39.84940329820569,-104.6739567505633,-0.7626773638458305,5.067157448988645,277.673201668853,-26.08713871497564,-179.5779671564001,FuelLeak,0.67,,,,None
2025-11-09_22:20:25,0.0009007114542833297,0.0,39.84940329913776,-104.6739567460928,-0.7621668278893471,5.065846165804893,277.6621507599014,-26.09225844392551,FuelLeak,0.775,,,,None
2025-11-09_22:20:26,-179.5792556598633,-0.0001098656403433471,0.0,39.84940329993095,-104.6739567424617,-0.761740680233201,5.06585057181538,277.6533083525542,FuelLeak,0.685,,,,None
2025-11-09_22:20:27,-26.09672537258643,-179.5803068484785,-8.313117163620802,0.0,39.84940330085717,-104.6739567382314,-0.7612112235608685,5.065853893605483,FuelLeak,0.615,,,,None
2025-11-09_22:20:28,277.6429782612386,-26.10208329333492,-179.5815216901659,-5.591749500359166,0.0,39.84940330185553,-104.6739567338688,-0.7606630718347384,EngineFailure,0.63,,,,None
2025-11-09_22:20:29,5.067165066554003,277.6324979958472,-26.10791136881812,-179.5827753071429,0.001023065758868002,0.0,39.84940330280565,-104.6739567293613,FuelLeak,0.805,,,,None
2025-11-09_22:20:31,-0.7600033569795618,5.065860456341276,277.6212240446153,-26.11373407388412,-179.5839958856998,-8.189489523813114,0.0,39.84940330374859,FuelLeak,0.66,,,,None
2025-11-09_22:20:32,-104.6739567250799,-0.7593802854534552,5.065863601537878,277.6106867823142,-26.11950776744576,-179.5851561934584,1.040926729502147,0.0,FuelLeak,0.605,,,,None
2025-11-09_22:20:33,39.84940330472363,-104.6739567206769,-0.7587168506641049,5.065864618387509,277.5998409589639,-26.12551635539705,-179.5863236729949,2.703633727127311,EngineFailure,0.48,,,,None
2025-11-09_22:20:34,39.84940330552065,-104.6739567171144,-0.7581650278584614,5.065864837455097,277.5910763756326,-26.13041127600773,-179.5872525198143,3.779157324047117,EngineFailure,0.48,,,,None
2025-11-09_22:20:35,39.84940330635231,-104.6739567134276,-0.7575815309416333,5.065865242507158,277.5820125702864,-26.13550035160397,-179.5881929163535,4.937414898983905,EngineFailure,0.48,,,,None
2025-11-09_22:20:36,39.84940330740154,-104.6739567089939,-0.7568987380708182,5.06717115798084,277.5713292741351,-26.14179343901843,-179.5893260377866,0.001133915296524607,EngineFailure,0.48,,,,None
2025-11-09_22:20:37,39.84940330816649,-104.6739567054937,-0.7562881686874516,5.065865380832813,277.5625457776301,-26.14648707224567,-179.5901533212355,6.894391716213977,EngineFailure,0.48,,,,None
2025-11-09_22:20:38,39.84940330918085,-104.6739567011215,-0.7555570073667139,5.065865284172668,277.5518477142774,-26.15253823787593,-179.5911995615712,7.707802472549656,EngineFailure,0.48,,,,None
2025-11-09_22:20:39,39.84940331010726,-104.6739566973334,-0.754949629821808,5.067171053963746,277.5427995243559,-26.15792320635986,-179.5921113953229,0.001168440667504263,EngineFailure,0.48,,,,None
2025-11-09_22:20:40,39.84940331097207,-104.6739566936749,-0.7543229639878178,5.067170473001865,277.5338849925453,-26.16295197013459,-179.592946423932,0.001178040388990224,EngineFailure,0.48,,,,None
2025-11-09_22:20:41,39.84940331202199,-104.6739566892745,-0.7535616383978457,5.067170326706834,277.5231897942038,-26.16896179815776,-179.5939292901571,0.001188128658998248,EngineFailure,0.48,,,,None
2025-11-09_22:20:42,0.0,39.84940331284766,-104.6739566856763,-0.7528984851044449,5.065863101263895,277.5142610485677,-26.17367575763017,-179.5946853489766,FuelLeak,0.67,,,,None
2025-11-09_22:20:44,9.768338649491614,0.0,39.84940331398062,-104.6739566811757,-0.7521448599410663,5.067168328810962,277.5035888996223,-26.17987834224968,FuelLeak,0.775,,,,None
2025-11-09_22:20:45,-179.5956787521887,0.001205559958512136,0.0,39.84940331501458,-104.6739566768137,-0.7513401397718819,5.065858753902952,277.4928887538185,FuelLeak,0.685,,,,None
2025-11-09_22:20:46,-26.18548659135496,-179.5965591640592,0.0001016756030761043,0.0,39.84940331593636,-104.6739566731024,-0.7506844496109631,5.065858141002001,FuelLeak,0.595,,,,None
2025-11-09_22:20:47,277.4839899365866,-26.19033140829914,-179.5973175871853,0.0001027817574564289,0.0,39.84940331711206,-104.6739566685578,-0.7499178849392191,EngineFailure,0.63,,,,None
2025-11-09_22:20:48,5.067163621002057,277.473336360691,-26.1963438770961,-179.5982680619803,0.001222332104091196,0.0,39.84940331825015,-104.67395666407,FuelLeak,0.805,,,,None
2025-11-09_22:20:49,-0.7491270581076815,5.067161946276142,277.4626799796106,-26.20199028893646,-179.5991643075198,0.001224418077522478,0.0,39.8494033191568,FuelLeak,0.755,,,,None
2025-11-09_22:20:50,-104.6739566603905,-0.7484452446566764,5.065851030041402,277.4537942726939,-26.20633269754499,-179.5998588300349,9.499286043351352,0.0,FuelLeak,0.605,,,,None
2025-11-09_22:20:51,39.84940332031322,-104.6739566559265,-0.7476679156725949,5.065848535089634,277.4433160029576,-26.21168437293172,-179.6007425624742,8.829575949974158,EngineFailure,0.48,,,,None
2025-11-09_22:20:53,39.84940332137771,-104.6739566519969,-0.7470265887847235,5.067153799463416,277.4343418634126,-26.21645217230679,-179.6015478278151,0.001226469262231012,EngineFailure,0.48,,,,None
2025-11-09_22:20:54,39.84940332253026,-104.6739566475013,-0.7462261445623933,5.065841852615431,277.423738557433,-26.22130612017163,-179.6024100959368,7.235607316064202,EngineFailure,0.48,,,,None
2025-11-09_22:20:55,39.84940332353838,-104.6739566437328,-0.7455971941909731,5.06583697221205,277.4150846129526,-26.22537211480335,-179.6031702667815,5.862698880135611,EngineFailure,0.48,,,,None
2025-11-09_22:20:56,39.84940332486359,-104.6739566389644,-0.7448555407482162,5.067140482527951,277.4044265236205,-26.23048812891514,-179.6041895992809,0.001207162248109286,EngineFailure,0.48,,,,None
2025-11-09_22:20:57,39.8494033259083,-104.6739566351456,-0.7442518668525988,5.067136363328549,277.3958332050037,-26.23419301887429,-179.6050116299972,0.00119687960482942,EngineFailure,0.48,,,,None
2025-11-09_22:20:58,39.8494033270057,-104.6739566311703,-0.7436455152557735,5.067129445180886,277.3869828604376,-26.23780692741103,-179.6059024292016,0.001180491061400791,EngineFailure,0.48,,,,None
2025-11-09_22:20:59,39.84940332832855,-104.6739566264362,-0.7429599702385465,5.067121248799447,277.3765944977453,-26.24173541379449,-179.6070277120258,0.001156449378497462,EngineFailure,0.48,,,,None
2025-11-09_22:21:00,39.84940332945334,-104.6739566224524,-0.7424216569124354,5.067112401499493,277.3679967280769,-26.24467183797069,-179.6080504009789,0.001127896350519996,EngineFailure,0.48,,,,None
2025-11-09_22:21:01,39.84940333054525,-104.6739566185026,-0.741899649414109,5.065792932625533,277.3594509945876,-26.2469083176963,-179.6091278445855,-0.0001304544765947238,EngineFailure,0.48,,,,None
2025-11-09_22:21:02,0.0,39.84940333193099,-104.6739566136766,-0.7413780443852209,5.065778712908648,277.3494579536904,-26.24930208953231,-179.6106228064744,FuelLeak,0.67,,,,None
2025-11-09_22:21:03,-0.0002104702033467118,0.0,39.84940333339044,-104.6739566086246,-0.7409523108305917,5.065756795901298,277.3393411766511,-26.25081113570933,FuelLeak,0.775,,,,None
2025-11-09_22:21:04,-179.6124307757565,-0.0003325946688539085,0.0,39.84940333467411,-104.6739566043066,-0.7407484728616383,5.067044191591313,277.3311999412438,FuelLeak,0.685,,,,None
2025-11-09_22:21:06,-26.25137819385138,-179.6142475136768,0.0007881466820978286,0.0,39.84940333618304,-104.6739565990574,-0.7407207862221706,5.067001287501566,FuelLeak,0.595,,,,None
2025-11-09_22:21:07,277.3217076058116,-26.24973191898807,-179.6169274724605,0.000515310384593084,0.0,39.84940333772162,-104.6739565935193,-0.7411975333582791,EngineFailure,0.63,,,,None
2025-11-09_22:21:08,5.066919384149828,277.3127411365083,-26.24423935450229,-179.6206478036976,-8.332383345484052,0.0,39.84940333898476,-104.6739565884272,FuelLeak,0.8,,,,None
2025-11-09_22:21:09,-0.7425377169979607,5.066749093297053,277.3060987101364,-26.23265811940227,-179.625482315745,-0.001516726160612321,0.0,39.84940334012579,FuelLeak,0.755,,,,None
2025-11-09_22:21:10,-104.6739565799593,-0.7493664995001535,5.065612384423384,277.3015201588004,-26.18082444606183,-179.6387556408513,-0.01219806689839281,0.0,FuelLeak,0.605,,,,None
2025-11-09_22:21:11,39.84940334003922,-104.6739565686468,-0.7637931835775618,5.065135473437529,277.3035446754928,-26.07050143370626,-179.6631542884192,-0.003297012483958379,EngineFailure,0.48,,,,None
2025-11-09_22:21:12,39.84940334174737,-104.6739565630414,-0.7633276730157422,5.065660571011456,277.2951606585875,-26.06446254331508,-179.6676255387935,4.27416504473685,EngineFailure,0.48,,,,None
2025-11-09_22:21:13,39.84940334330197,-104.6739565587438,-0.7626140365631556,5.066980144051967,277.2872351452287,-26.06667724902422,-179.6696070092084,0.001463856006892117,EngineFailure,0.48,,,,None
2025-11-09_22:21:14,39.84940334506516,-104.6739565537274,-0.7616181294581656,5.065688986662956,277.2775546465447,-26.06915325622104,-179.6719067655621,0.0001360533976937806,EngineFailure,0.48,,,,None
2025-11-09_22:21:16,39.84940334654878,-104.6739565495667,-0.7607669857202358,5.065696323542737,277.2695703377452,-26.07178372857084,-179.6737568171529,0.0001832265634759759,EngineFailure,0.48,,,,None
