time,lat,lon,alt_ft,airspeed_kt,heading_deg,pitch_deg,roll_deg,vsi_fps,pred,f_prob,target_icao,cmd_heading,cmd_alt,cmd_throttle
2025-12-06_15:40:51,12.95018028592433,77.67714947716513,2917.711951708082,8.083742745836943,246.4708476317993,2.277114004747634,-3.277857671503496,0.001528361355686651,Normal,0.465,,,,None
2025-12-06_15:40:59,12.9501801861412,77.67714955725195,2917.711020372363,9.436685918414716,246.3893894832938,2.5875118639789,-3.556248376405854,0.0,Normal,0.465,,,,None
2025-12-06_15:41:08,0.006640560483620297,12.95018015438802,77.67714952392744,2917.710902154209,9.422133872012646,246.3594216501565,2.440271104575265,-3.329455187804259,FuelLeak,0.85,,,,None
2025-12-06_15:41:14,0.001080621608445786,0.0,12.95018009960979,77.67714951382753,2917.708963037647,9.401926625546867,246.3347884677017,2.436772637043713,FuelLeak,0.6,,,,None
2025-12-06_15:41:18,-3.322027934905678,0.001121633630788009,0.0,12.95018008088897,77.67714951404788,2917.703128104583,9.39531553074503,246.3094755978483,FuelLeak,0.74,,,,None
2025-12-06_15:41:20,2.526110719850933,-3.201255543168384,0.001075842952904849,0.0,12.95018005573702,77.67714950999068,2917.702187981795,9.38432420323677,FuelLeak,0.72,,,,None
2025-12-06_15:41:22,246.2976685869407,2.523457741214184,-3.197098250777796,0.01203337644967669,0.0,12.95017997192236,77.67714954290535,2917.699049502117,EngineFailure,0.525,,,,None
2025-12-06_15:41:24,9.379508954924397,246.2580744556251,2.551193717642581,-3.649015699506575,-0.001819368226239074,0.0,12.95017995259238,77.67714953688312,FuelLeak,0.68,,,,None
2025-12-06_15:41:26,2917.698648832331,9.374128355423547,246.2474963245462,2.527378654951482,-3.647069343499844,0.001230133902540678,0.0,12.95017992958988,FuelLeak,0.68,,,,None
2025-12-06_15:41:29,77.67714952911717,2917.697353742004,9.373072354743108,246.2341784202894,2.496043095343044,-3.645691807113433,0.002270713451604412,0.0,FuelLeak,0.6,,,,None
2025-12-06_15:41:31,12.95017989800174,77.67714950371257,2917.692233845368,9.3617311968502,246.2301951890695,2.34885549553578,-3.642737963921058,0.0009464196637119014,Normal,0.465,,,,None
2025-12-06_15:41:32,0.0,12.95017988618319,77.6771495082603,2917.693030478204,9.364275797955985,246.2160494690347,2.390870211173965,-3.642046071337354,FuelLeak,0.85,,,,None
2025-12-06_15:41:33,-0.001649756039551673,12.95017987279446,77.67714950490023,2917.693450654531,9.356572818213978,246.2062782904441,2.389197510915965,-3.623016136887358,FuelLeak,0.85,,,,None
2025-12-06_15:41:35,-0.004738592818052048,0.0,12.95017986346,77.6771494913804,2917.695478040218,9.347407313680593,246.2048812327318,2.33585986431755,FuelLeak,0.6,,,,None
2025-12-06_15:41:36,-3.562572481416295,0.010330947022108,0.0,12.95017985842567,77.67714947711191,2917.698223164287,9.351489606263035,246.2041517604007,FuelLeak,0.74,,,,None
2025-12-06_15:41:38,2.283025107892606,-3.495849958658467,-0.001766767447372038,0.0,12.95017984652424,77.67714947603005,2917.696959383027,9.347873656123921,FuelLeak,0.72,,,,None
2025-12-06_15:41:39,246.194026123387,2.294740995316098,-3.47990711764011,-0.002937862276193239,0.0,12.95017983438392,77.67714947512262,2917.696415826069,EngineFailure,0.525,,,,None
2025-12-06_15:41:41,9.339306552958705,246.1859634320718,2.300890037517679,-3.471737201126946,0.001004707845689257,0.0,12.95017982055685,77.67714947274959,FuelLeak,0.68,,,,None
2025-12-06_15:41:42,2917.695921060023,9.34091126582755,246.1760496361044,2.298565572352986,-3.471422038497803,-0.001521891351911163,0.0,12.95017980457004,FuelLeak,0.68,,,,None
2025-12-06_15:41:44,77.67714947080859,2917.695390287248,9.3320773957339,246.1666964745236,2.296694553471228,-3.470215338890429,0.001115756377850913,0.0,FuelLeak,0.6,,,,None
2025-12-06_15:41:45,12.95017978883757,77.67714946817023,2917.694882750532,9.333226516009697,246.1555515487238,2.294268386559826,-3.469630159380441,-0.00163291232100548,Normal,0.465,,,,None
2025-12-06_15:41:47,0.0,12.95017977363965,77.67714946613248,2917.69440014148,9.324422846808751,246.1468469032347,2.291324660757404,-3.468017183088763,FuelLeak,0.85,,,,None
2025-12-06_15:41:48,0.0008188597667800949,0.0,12.95017977330726,77.67714946712103,2917.691032834843,9.325612159848134,246.1360209607186,2.344491032310176,FuelLeak,0.6,,,,None
2025-12-06_15:41:50,-3.394512520769467,-0.001564337906956965,12.95017975532649,77.67714946513156,2917.69186595245,9.316981949311497,246.1286668377271,2.327622343829535,FuelLeak,0.6,,,,None
2025-12-06_15:41:52,-3.421118262006758,0.0028354755967422,0.0,12.95017974045248,77.67714945592526,2917.692989544035,9.317237433574391,246.1214495877505,FuelLeak,0.74,,,,None
2025-12-06_15:41:53,2.291816925619931,-3.399030923664621,-0.003158229771887281,0.0,12.95017972344994,77.67714945035533,2917.693002754782,9.309263408034358,FuelLeak,0.72,,,,None
2025-12-06_15:41:55,246.1127606047891,2.275819962737827,-3.381526249570615,0.0009859212347019682,0.0,12.95017971367509,77.67714944875061,2917.692709826582,EngineFailure,0.525,,,,None
2025-12-06_15:41:57,9.307020029688228,246.1067688372459,2.273306970748815,-3.381089507728788,0.001077401444443171,0.0,12.95017969600457,77.67714944568532,FuelLeak,0.68,,,,None
2025-12-06_15:41:58,2917.69216415938,9.307730598702342,246.0949417923559,2.269247972105051,-3.381752744215005,-0.001755644399540185,0.0,12.95017968623278,FuelLeak,0.68,,,,None
2025-12-06_15:42:00,77.67714944410307,2917.691869181762,9.30545088883915,246.088946005441,2.266856734395422,-3.381356870114812,-0.001574849512729306,0.0,FuelLeak,0.6,,,,None
2025-12-06_15:42:02,12.95017967038086,77.67714944168509,2917.691395537126,9.301804733345488,246.0791740461347,2.263638654514803,-3.381355274837551,-0.001696778296674476,Normal,0.465,,,,None
2025-12-06_15:42:04,0.0,12.95017966056272,77.6771494401439,2917.691108278517,9.300003524240818,246.0731554169022,2.261370184486739,-3.38128935637363,FuelLeak,0.85,,,,None
2025-12-06_15:42:05,-0.001500531526223127,0.0,12.9501796186457,77.67714943057503,2917.694411548127,9.300037636858493,246.0614321957019,2.168639363941221,FuelLeak,0.6,,,,None
2025-12-06_15:42:07,-3.483939963177834,-0.00140637608254112,0.0,12.95017961037106,77.6771494309162,2917.694176858853,9.299954474192532,246.0548491007332,FuelLeak,0.74,,,,None
2025-12-06_15:42:09,2.177957342630993,-3.483125429783836,-0.001489290822501819,12.9501796002434,77.67714942926122,2917.69398283251,9.300064728090685,246.0486878812766,FuelLeak,0.74,,,,None
2025-12-06_15:42:10,2.173930043210158,-3.484300362696209,-0.001452708936256795,0.0,12.95017959016222,77.67714942780653,2917.693758478491,9.299938846501012,FuelLeak,0.72,,,,None
2025-12-06_15:42:12,246.0424214187877,2.171103955020927,-3.485742875166693,-0.001632600333810608,0.0,12.950179549737,77.67714943964175,2917.683905799355,EngineFailure,0.525,,,,None
2025-12-06_15:42:13,9.298766514864512,246.0190192144092,2.191008897355708,-3.646505264837289,-0.0008913463358154946,0.0,12.95017954052836,77.67714944021574,FuelLeak,0.68,,,,None
2025-12-06_15:42:15,2917.683712837294,9.29489022397594,246.0129791075934,2.198273754974046,-3.648210130472202,0.0009456619574719829,0.0,12.9501795263004,FuelLeak,0.68,,,,None
2025-12-06_15:42:17,77.67714943719756,2917.682120619072,9.299403431395742,246.0010601511959,2.199126484766739,-3.633862670980975,-0.009762421513040536,0.0,FuelLeak,0.6,,,,None
2025-12-06_15:42:18,12.95017953227316,77.67714944137003,2917.679761724542,9.299709674211584,245.9941583966984,2.263321719583165,-3.565883075070309,-0.001603184898709034,Normal,0.465,,,,None
2025-12-06_15:42:19,0.0,12.95017950868147,77.67714943748668,2917.679234334367,9.294660031496516,245.9810158166997,2.250581230328548,-3.569595085400982,FuelLeak,0.85,,,,None
2025-12-06_15:42:21,0.001018081721617705,0.0,12.95017949488984,77.6771494356305,2917.678916422478,9.294665844120452,245.972241543543,2.247164894719551,FuelLeak,0.6,,,,None
2025-12-06_15:42:22,-3.57198602340574,0.001277441825231292,0.0,12.95017948090746,77.67714943366717,2917.678574767987,9.294747737809447,245.9633957558478,FuelLeak,0.74,,,,None
2025-12-06_15:42:24,2.243169340147044,-3.57434461828451,0.00121852354530691,0.0,12.95017946465243,77.67714943100745,2917.678242138206,9.299880074651018,FuelLeak,0.72,,,,None
2025-12-06_15:42:25,245.9521812382613,2.237750474338477,-3.577974978540854,-0.001017123474448762,12.95017944995831,77.67714942811787,2917.678071245326,9.299860359710145,FuelLeak,0.72,,,,None
2025-12-06_15:42:27,245.9431473989297,2.230016189590908,-3.576714675754638,-0.001546472487284399,0.0,12.95017942157037,77.67714942361425,2917.679712386182,EngineFailure,0.525,,,,None
2025-12-06_15:42:28,9.293842259235168,245.9331784784283,2.184743787699288,-3.633146466125897,0.002865823254339927,0.0,12.9501794040188,77.67714942100352,FuelLeak,0.68,,,,None
2025-12-06_15:42:30,2917.679616917277,9.294623648806017,245.9227879430234,2.174290666128446,-3.642335677378414,0.001270575278908028,0.0,12.95017939303869,FuelLeak,0.68,,,,None
2025-12-06_15:42:31,77.67714941911545,2917.679406760414,9.299865399658184,245.9148370629188,2.169783265824643,-3.645628161893411,-0.001472663637747954,0.0,FuelLeak,0.6,,,,None
2025-12-06_15:42:33,12.95017938135625,77.67714941787105,2917.67915959313,9.294572864906941,245.9082231758952,2.167073150959358,-3.646464066151857,0.001231178263341707,Normal,0.465,,,,None
2025-12-06_15:42:34,0.0,12.95017936129421,77.6771494148764,2917.678722716892,9.299991841909277,245.8943147648727,2.160510292146028,-3.651578140523769,FuelLeak,0.85,,,,None
2025-12-06_15:42:36,-0.001592493555361659,0.0,12.95017934579947,77.67714941308652,2917.678381889492,9.294563422050429,245.8851971217894,2.156674107279827,FuelLeak,0.6,,,,None
2025-12-06_15:42:38,-3.652685839313229,0.001344516437437269,0.0,12.95017933111183,77.67714941081287,2917.678041577992,9.299916420976494,245.8746608276343,FuelLeak,0.74,,,,None
2025-12-06_15:42:39,2.152076073459061,-3.656118095784498,-0.001547959289764876,0.0,12.95017936160648,77.67714941370843,2917.671699781601,9.29398625664033,FuelLeak,0.72,,,,None
2025-12-06_15:42:41,245.8686834878215,2.286003552979923,-3.417949320948765,-0.005133432299451532,0.0,12.95017935232654,77.6771494009056,2917.673859603428,EngineFailure,0.525,,,,None
2025-12-06_15:42:43,9.292458550698656,245.8675124924563,2.231659205311732,-3.372701815662602,0.00801197010984153,12.95017933904365,77.67714939232998,2917.674920750596,EngineFailure,0.525,,,,None
2025-12-06_15:42:45,9.294564603476186,245.8614076727568,2.202435651665438,-3.340803779557334,0.001104142611860056,0.0,12.95017932891962,77.67714939073174,FuelLeak,0.68,,,,None
2025-12-06_15:42:46,2917.674714804165,9.294589770508612,245.8554144614121,2.199188248470048,-3.342244018146517,0.001062279798631311,0.0,12.95017929333882,FuelLeak,0.68,,,,None
2025-12-06_15:42:48,77.67714938355225,2917.677607223868,9.299814394252982,245.8435863041375,2.127899597422318,-3.430822953473528,-0.001502886123226652,0.0,FuelLeak,0.6,,,,None
2025-12-06_15:42:49,12.95017927777261,77.67714938142986,2917.677246041692,9.294573151763498,245.8351348952185,2.122517693680948,-3.432539067628972,0.001291122172418134,Normal,0.465,,,,None
2025-12-06_15:42:51,0.0,12.95017925752783,77.67714937837974,2917.676851389974,9.294586683480341,245.8227718737002,2.116117350850216,-3.43555400946315,FuelLeak,0.85,,,,None
2025-12-06_15:42:52,0.001129981774268807,0.0,12.95017926578825,77.67714941396336,2917.681085062276,9.298855052936311,245.7950542962225,2.379462375750273,FuelLeak,0.6,,,,None
2025-12-06_15:42:54,-3.390968564170869,-0.001023831809563812,0.0,12.95017925526978,77.67714941212289,2917.680958731786,9.30013656777228,245.7891138698525,FuelLeak,0.74,,,,None
2025-12-06_15:42:56,2.37401766413597,-3.394003061870525,-0.001603812316203952,0.0,12.9501792202789,77.67714944492376,2917.672552970608,9.298421210058459,FuelLeak,0.72,,,,None
2025-12-06_15:42:58,245.755774094883,2.520283008454454,-3.578199770588586,-0.0007977028671723118,0.0,12.9501792031004,77.6771494399442,2917.67226982423,EngineFailure,0.525,,,,None
2025-12-06_15:42:59,9.299958928564154,245.7468639811163,2.499672105387583,-3.579202738115335,-0.001401503991786338,0.0,12.95017920838278,77.67714944381433,FuelLeak,0.68,,,,None
2025-12-06_15:43:01,2917.66771094131,9.299404718667374,245.7349908702397,2.585934519290178,-3.473055462840185,-0.001300041906270114,12.9501791983135,77.6771494414333,FuelLeak,0.68,,,,None
2025-12-06_15:43:02,2917.667530582412,9.294637156590527,245.7309333595123,2.57465931459983,-3.475151278890356,0.001343225981682135,0.0,12.95017918007571,FuelLeak,0.68,,,,None
2025-12-06_15:43:04,77.67714943885795,2917.667175515762,9.294470424251077,245.7197728755006,2.570829780888237,-3.478831378281874,0.001247290872135741,0.0,FuelLeak,0.6,,,,None
2025-12-06_15:43:05,12.95017915030677,77.67714943149805,2917.66894761484,9.299883833599221,245.7091520931993,2.508037843612198,-3.539853380431456,0.009938107426856177,Normal,0.465,,,,None
2025-12-06_15:43:06,0.0,12.95017912345162,77.67714942229074,2917.670351566953,9.297430081715255,245.7002350590741,2.441596326182083,-3.573121987697322,FuelLeak,0.85,,,,None
2025-12-06_15:43:08,-0.0006705885683190708,0.0,12.95017911089597,77.67714940340966,2917.67329231469,9.28971466640879,245.6991058039109,2.366177351610629,FuelLeak,0.6,,,,None
2025-12-06_15:43:09,-3.493464314046236,0.01086378552009766,0.0,12.95017909746305,77.67714939453603,2917.674525831443,9.298264251179065,245.6909972045734,FuelLeak,0.74,,,,None
2025-12-06_15:43:11,2.333092101780717,-3.457152531923414,-0.002409828501152467,0.0,12.9501790926736,77.6771494090937,2917.666097222193,9.301538226193365,FuelLeak,0.72,,,,None
2025-12-06_15:43:12,245.6729760758033,2.435472201959222,-3.442771970794461,-0.004279060959665779,0.0,12.95017907142705,77.67714940935106,2917.665806226377,EngineFailure,0.525,,,,None
2025-12-06_15:43:14,9.292362912550985,245.6582910217869,2.435432315653972,-3.443920206319027,0.004102878202414176,0.0,12.95017905629499,77.67714940959284,FuelLeak,0.68,,,,None
2025-12-06_15:43:15,2917.665584130525,9.301531830818648,245.6456917472671,2.436421442275569,-3.445641038629401,0.001114276526102859,0.0,12.95017903707199,FuelLeak,0.68,,,,None
2025-12-06_15:43:17,77.67714941026728,2917.665347590845,9.291558752773607,245.6320714547852,2.439295340770863,-3.446271529320025,0.0008171307321765975,12.95017902180762,FuelLeak,0.6,,,,None
2025-12-06_15:43:18,77.67714940980647,2917.664960988462,9.297131174521601,245.6208372123175,2.437692976037571,-3.446975618562568,0.004227550869954603,0.0,FuelLeak,0.6,,,,None
2025-12-06_15:43:20,12.95017900720721,77.67714939544858,2917.66128484125,9.292641260601924,245.6194105435372,2.352909901072872,-3.446704455890598,-0.01253554419523853,Normal,0.465,,,,None
2025-12-06_15:43:21,0.0,12.95017898351008,77.67714937307618,2917.658462199608,9.300441933028356,245.6191278532483,2.217434598029421,-3.4474823720669,FuelLeak,0.85,,,,None
2025-12-06_15:43:23,0.02500400735643355,0.0,12.95017896694199,77.67714936031636,2917.657514697694,9.297317412242286,245.6148051396934,2.153824110205859,FuelLeak,0.6,,,,None
2025-12-06_15:43:24,-3.429966228701816,-0.0003032583983023463,0.0,12.95017896202592,77.67714935696173,2917.65609809816,9.294823192215741,245.6080351397436,FuelLeak,0.74,,,,None
2025-12-06_15:43:26,2.169896795998894,-3.36719591791055,0.0006734115358401445,0.0,12.9501789476984,77.67714935432062,2917.65569812583,9.294487088781521,FuelLeak,0.72,,,,None
2025-12-06_15:43:27,245.5996633605311,2.163208187703389,-3.368357340011606,0.001232460935501274,0.0,12.95017893413943,77.67714935215821,2917.655340638332,EngineFailure,0.525,,,,None
2025-12-06_15:43:29,9.29452811086413,245.5913310937909,2.159914755335929,-3.368122778218787,0.001092384822623216,0.0,12.95017891712238,77.67714934950088,FuelLeak,0.68,,,,None
2025-12-06_15:43:30,2917.65489019712,9.294479939171726,245.5808526167606,2.156030989120111,-3.368134364123208,0.001022368549477229,0.0,12.95017890708596,FuelLeak,0.68,,,,None
2025-12-06_15:43:31,77.67714934765254,2917.654621787572,9.299771906768415,245.5737238023293,2.153586984162172,-3.369211818001875,-0.001738538037159053,0.0,FuelLeak,0.6,,,,None
2025-12-06_15:43:33,12.95017889655218,77.67714934617408,2917.654677460342,9.300667754899921,245.567504465114,2.150659081796338,-3.371525206097287,0.01152090593026354,Normal,0.465,,,,None
2025-12-06_15:43:34,12.95017885652539,77.6771493384692,2917.657707688024,9.299687639122952,245.555051636002,2.06980900106474,-3.470200300279473,-0.00169101392914351,Normal,0.465,,,,None
2025-12-06_15:43:35,0.0,12.95017884703038,77.677149336955,2917.657386165573,9.299741252503951,245.5488781895715,2.068027552047913,-3.468459405973904,FuelLeak,0.85,,,,None
2025-12-06_15:43:37,-0.0016413933343037,0.0,12.95017883542187,77.6771493510807,2917.66236315734,9.296777684061354,245.5292770220646,2.173825583507083,FuelLeak,0.6,,,,None
2025-12-06_15:43:38,-3.466236129591281,0.007052954863642264,0.0,12.95017882057768,77.67714933664973,2917.663473922633,9.294732380401738,245.5260200382927,FuelLeak,0.74,,,,None
2025-12-06_15:43:39,2.112349844663112,-3.418271381211395,0.001075746580672094,0.0,12.95017880867644,77.67714933508618,2917.663066491713,9.294486909040458,FuelLeak,0.72,,,,None
2025-12-06_15:43:41,245.5181280524238,2.112620354021633,-3.416309740739455,0.00118102161338904,0.0,12.95017879696746,77.67714933301257,2917.662668503935,EngineFailure,0.525,,,,None
2025-12-06_15:43:42,9.299840648723489,245.5095874226179,2.111107301716333,-3.415185400370915,-0.001709193505929338,0.0,12.9501787813864,77.67714933100716,FuelLeak,0.68,,,,None
2025-12-06_15:43:44,2917.662205064589,9.294506745894337,245.5004346510944,2.109919185497356,-3.411604826782764,0.001144674477309154,0.0,12.95017877206208,FuelLeak,0.68,,,,None
2025-12-06_15:43:45,77.67714932935887,2917.661872333085,9.2998684939448,245.4933052377276,2.109594917727633,-3.410143565388791,-0.001734121737425702,0.0,FuelLeak,0.6,,,,None
2025-12-06_15:43:46,12.9501787555392,77.67714932717,2917.661349920597,9.294512322923497,245.4835690203997,2.108112876650292,-3.406320405813763,0.0009823829869685086,Normal,0.465,,,,None
2025-12-06_15:43:48,12.95017872241011,77.67714931806758,2917.665482215619,9.299232093363589,245.4787758269368,2.000648209986646,-3.526238698858856,-0.001484504212662458,Normal,0.465,,,,None
2025-12-06_15:43:49,12.95017871064115,77.67714931891122,2917.665036663661,9.294399845254727,245.4695432388213,2.017692983269302,-3.518635777203703,0.001002930595839031,Normal,0.465,,,,None
2025-12-06_15:43:50,0.0,12.95017870734278,77.67714931871349,2917.663294792209,9.300087558045194,245.4606934416321,2.045034462745481,-3.479702529208822,FuelLeak,0.85,,,,None
2025-12-06_15:43:51,0.001301235312208563,0.0,12.95017870420704,77.6771493194014,2917.661289902728,9.293876585850104,245.4532591234564,2.076896047823041,FuelLeak,0.6,,,,None
2025-12-06_15:43:53,-3.43527516413728,-0.004878953021195238,0.0,12.95017870160442,77.67714932172557,2917.65797501643,9.295674454092701,245.4428219107151,FuelLeak,0.74,,,,None
2025-12-06_15:43:54,2.126151113961764,-3.384690172552195,-0.003466662339260678,0.0,12.95017868925486,77.67714932184121,2917.656993418262,9.294461926932819,FuelLeak,0.72,,,,None
2025-12-06_15:43:56,245.4325604134951,2.142380488670119,-3.376776939800064,0.001062311748992584,0.0,12.95017867729666,77.6771493198615,2917.656584783712,EngineFailure,0.525,,,,None
2025-12-06_15:43:57,9.299742962892369,245.4237395901495,2.142514260342015,-3.374814525045809,-0.001607375309299152,0.0,12.95017866597559,77.67714932178177,FuelLeak,0.68,,,,None
2025-12-06_15:43:58,2917.657797722785,9.29904056661727,245.4150235589126,2.163892206994223,-3.371736182863783,0.008006741920500956,0.0,12.95017865747638,FuelLeak,0.68,,,,None
2025-12-06_15:44:00,77.67714933085573,2917.658542739327,9.29993516616243,245.4001197503769,2.237039523750787,-3.36998593302292,-0.001652931186325876,0.0,FuelLeak,0.6,,,,None
2025-12-06_15:44:01,12.95017864234935,77.67714932942745,2917.658053136232,9.294567087843493,245.3910335834259,2.239541683555215,-3.367231243734259,0.001149094773227374,Normal,0.465,,,,None
2025-12-06_15:44:02,12.95017863199962,77.67714932786222,2917.657742367358,9.294603803917658,245.3843038385735,2.239494437321457,-3.364362210316627,0.001070321578329705,Normal,0.465,,,,None
2025-12-06_15:44:03,12.95017862229656,77.67714932606573,2917.657425083146,9.29998110453972,245.3771230208058,2.238825557292293,-3.363061788065592,-0.001589595264669112,Normal,0.465,,,,None
2025-12-06_15:44:05,12.95017861289562,77.6771493246983,2917.65712293956,9.299954606346512,245.3710628814381,2.238667498402318,-3.361326871250963,-0.001811902217388559,Normal,0.465,,,,None
2025-12-06_15:44:06,0.0,12.95017859550682,77.67714932253882,2917.656449102379,9.296948211444773,245.3607701629384,2.238831356081232,-3.358039010604493,FuelLeak,0.85,,,,None
2025-12-06_15:44:07,-0.00913689783164427,0.0,12.95017857615194,77.67714933164137,2917.653342674647,9.294617567880643,245.3450772439,2.283021290015214,FuelLeak,0.6,,,,None
2025-12-06_15:44:09,-3.416233312218819,0.001152784551863803,0.0,12.95017856405036,77.67714933004584,2917.652939621384,9.299925863986878,245.3358053888561,FuelLeak,0.74,,,,None
2025-12-06_15:44:10,2.286056477769161,-3.41444737656215,-0.00151247036985014,0.0,12.95017855295833,77.67714932840757,2917.652609891844,9.299837878208928,FuelLeak,0.72,,,,None
2025-12-06_15:44:11,245.3285742292536,2.285789685771506,-3.412157075536731,-0.001701179324987342,0.0,12.95017853854816,77.67714932636063,2917.652161872023,EngineFailure,0.525,,,,None
2025-12-06_15:44:13,9.299887710597345,245.3191680305554,2.285732060216964,-3.409614995468652,-0.00164741551313585,0.0,12.95017852821261,77.67714932521028,FuelLeak,0.68,,,,None
2025-12-06_15:44:14,2917.651855592352,9.294498324812293,245.3133885413403,2.286101886521634,-3.406325305758228,0.001045599073689191,0.0,12.95017851556687,FuelLeak,0.68,,,,None
2025-12-06_15:44:16,77.67714932309518,2917.651470402915,9.299852620445964,245.3041532036018,2.285808764065777,-3.405315644315106,-0.001641526436521881,0.0,FuelLeak,0.6,,,,None
2025-12-06_15:44:17,12.95017850260911,77.6771493214973,2917.651086663384,9.29447727443882,245.2966842355095,2.28569228523492,-3.401903547422242,0.001293172123221285,Normal,0.465,,,,None
2025-12-06_15:44:21,12.95017849054954,77.67714931978853,2917.650702319783,9.294516182144601,245.2888232846967,2.285705494729038,-3.399815029915657,0.0009615225929376647,Normal,0.465,,,,None
2025-12-06_15:44:23,12.95017847744395,77.67714931757934,2917.650319955814,9.299826824636884,245.2793116294199,2.285574479109184,-3.397870260555219,-0.001769897642779389,Normal,0.465,,,,None
2025-12-06_15:44:25,12.9501784614605,77.67714932434143,2917.648145372572,9.295061793054613,245.2671903033479,2.320684084781904,-3.436339158427964,0.0005264293802724213,Normal,0.465,,,,None
2025-12-06_15:44:29,12.9501784506785,77.67714932186655,2917.647817553059,9.299797341938143,245.2595475902099,2.31678631560476,-3.434327809080046,-0.001679751206528492,Normal,0.465,,,,None
2025-12-06_15:44:33,0.0,12.9501784402271,77.6771493203751,2917.64751693368,9.299809618406561,245.2526745760541,2.316846619293119,-3.432243328172589,FuelLeak,0.85,,,,None
2025-12-06_15:44:35,-0.001552877916590936,0.0,12.95017842793006,77.67714931871808,2917.647143129929,9.299788536725854,245.2446114234821,2.317047201384177,FuelLeak,0.6,,,,None
2025-12-06_15:44:37,-3.430756238069149,-0.001629209413886757,0.0,12.95017841193867,77.67714931807863,2917.647847482841,9.304846233739694,245.2330943935253,FuelLeak,0.74,,,,None
2025-12-06_15:44:39,2.326940616482113,-3.428319182965597,0.01856227098319233,0.0,12.95017841593163,77.6771493511685,2917.652446764633,9.298236095784883,FuelLeak,0.72,,,,None
2025-12-06_15:44:41,245.2098909808461,2.549644965371993,-3.429661244102363,-0.0008926536413025128,0.0,12.95017839633902,77.67714934614247,2917.651944232673,EngineFailure,0.525,,,,None
2025-12-06_15:44:43,9.294453356565487,245.2001748968758,2.532879448078109,-3.425262674382013,0.001088638738896561,0.0,12.95017838326129,77.67714934437825,FuelLeak,0.68,,,,None
2025-12-06_15:44:46,2917.651607843537,9.294496794062002,245.1916663025541,2.533602611022529,-3.423774555181273,0.001255909817122894,0.0,12.95017837637899,FuelLeak,0.68,,,,None
2025-12-06_15:44:48,77.67714933368384,2917.653375227404,9.299812872056346,245.1891472669081,2.496806862989315,-3.376781324060336,-0.001568365837460321,0.0,FuelLeak,0.6,,,,None
2025-12-06_15:44:50,12.95017836095518,77.67714933072936,2917.651654541671,9.285389071014704,245.1809272608505,2.488869889462876,-3.3746294675409,-0.01856290721916334,Normal,0.465,,,,None
2025-12-06_15:44:51,12.95017832661389,77.67714929755005,2917.645973169142,9.28880579919626,245.1804625127377,2.291661851816047,-3.371834297526298,-0.01720043467348134,Normal,0.465,,,,None
2025-12-06_15:44:53,12.95017831092894,77.67714928174459,2917.64343128453,9.296933299983051,245.1808037836298,2.19838279968484,-3.370741160711013,0.01737737181464007,Normal,0.465,,,,None
2025-12-06_15:44:54,12.9501782971251,77.67714927035802,2917.641825998392,9.293747221766175,245.1792908499479,2.131454197077046,-3.368411296532845,0.00118463560535014,Normal,0.465,,,,None
2025-12-06_15:44:56,12.95017828761031,77.67714926913513,2917.641584742518,9.294537344800176,245.1731153142138,2.131557377439913,-3.367590210125569,0.001342696273286369,Normal,0.465,,,,None
2025-12-06_15:44:57,12.95017828761031,77.67714926913513,2917.641584742518,9.294537344800176,245.1731153142138,2.131557377439913,-3.367590210125569,0.001342696273286369,Normal,0.465,,,,None
2025-12-06_15:44:59,0.0,12.95017827789539,77.67714926771194,2917.64134462055,9.294495006531273,245.1670085572528,2.130199192200964,-3.367370135259811,FuelLeak,0.85,,,,None
2025-12-06_15:45:00,0.0009564656430074558,0.0,12.95017826824987,77.67714926633093,2917.64109691899,9.294523600239481,245.1608895498421,2.129229223661741,FuelLeak,0.6,,,,None
2025-12-06_15:45:02,-3.366869950572589,0.00101665799705192,0.0,12.9501782586772,77.67714926503864,2917.640883179231,9.294563133677887,245.1547356745168,FuelLeak,0.74,,,,None
2025-12-06_15:45:04,2.128922327071029,-3.36617398900979,0.0011209611801952,0.0,12.95017824901801,77.67714926370144,2917.640660237996,9.294496906354315,FuelLeak,0.72,,,,None
2025-12-06_15:45:05,245.1485927933928,2.128170954190442,-3.365849158267231,0.001214375472941995,0.0,12.950178239271,77.6771492622789,2917.640474279235,EngineFailure,0.525,,,,None
2025-12-06_15:45:06,9.294522861913741,245.142486029237,2.126744475050891,-3.365742496428056,0.001295964818562826,0.0,12.9501782296403,77.67714926092171,FuelLeak,0.68,,,,None
2025-12-06_15:45:08,2917.640251500654,9.294430542380251,245.1363554837071,2.125969321982749,-3.365214528634918,0.001060101551556714,0.0,12.95017821996888,FuelLeak,0.68,,,,None
2025-12-06_15:45:09,77.6771492595007,2917.64003890875,9.294484871626407,245.1302583226372,2.124717774182292,-3.364745719562041,0.001234463027351481,0.0,FuelLeak,0.6,,,,None
2025-12-06_15:45:11,12.95017821024566,77.67714925819631,2917.639858336106,9.294516878684737,245.1240925845769,2.123984151321138,-3.364814659386398,0.001123812804427858,Normal,0.465,,,,None
2025-12-06_15:45:12,12.95017820041966,77.67714925683688,2917.639646413388,9.294482230623467,245.117938976326,2.122704567038735,-3.36532810935434,0.001080422611127389,Normal,0.465,,,,None
2025-12-06_15:45:13,12.95017819063513,77.67714925543852,2917.639455612233,9.294503696652516,245.1118114321249,2.121315261927334,-3.365505695406115,0.001104839544280847,Normal,0.465,,,,None
2025-12-06_15:45:14,12.95017818211977,77.67714925238954,2917.640004823307,9.292322390303548,245.1067242466921,2.114597242455854,-3.353878478012439,0.005128218894082295,Normal,0.465,,,,None
2025-12-06_15:45:16,12.95017817383037,77.67714924648189,2917.640510201928,9.294574506916913,245.1032631331357,2.092906423666822,-3.333642611076221,0.001320560030647206,Normal,0.465,,,,None
2025-12-06_15:45:17,12.95017815421659,77.67714924398625,2917.640137749971,9.29448215266943,245.0909175853814,2.09171615089817,-3.334988812014668,0.001022314152938633,Normal,0.465,,,,None
2025-12-06_15:45:18,12.95017814435162,77.67714924263755,2917.639973479721,9.294544733165413,245.0847905591503,2.090428558406338,-3.335702117345088,0.001192112045807868,Normal,0.465,,,,None
2025-12-06_15:45:19,0.0,12.95017812543032,77.67714924000222,2917.639670117859,9.294480813913928,245.0731565303245,2.087158631029335,-3.337856881770721,FuelLeak,0.85,,,,None
2025-12-06_15:45:21,0.001325035009404179,0.0,12.95017811548005,77.67714923865157,2917.639531170241,9.294473005047424,245.0670125384706,2.085656889176137,FuelLeak,0.6,,,,None
2025-12-06_15:47:14,-3.338999640086667,0.001208298387366411,0.0,12.95017809569764,77.67714923547472,2917.63928206447,9.299835758050934,245.05395696883,FuelLeak,0.74,,,,None
2025-12-06_15:47:16,2.081393499684207,-3.341781471052833,-0.001366004064825215,0.0,12.95017810195871,77.6771492783665,2917.646663499828,9.309901227226725,FuelLeak,0.72,,,,None
2025-12-06_15:47:18,245.0260241129801,2.363246004857877,-3.348925647205226,-0.01686197294458345,0.0,12.95017809118186,77.67714926556992,2917.650793212667,EngineFailure,0.525,,,,None
2025-12-06_15:47:19,9.290082506043394,245.0227383771929,2.321217489920184,-3.280334198511148,0.004824526785992633,0.0,12.95017808354231,77.67714925728427,FuelLeak,0.68,,,,None
2025-12-06_15:47:21,2917.651239757682,9.29104926634161,245.0208097026755,2.285968011270667,-3.247767031043691,0.0151989526055011,0.0,12.95017807614653,FuelLeak,0.68,,,,None
2025-12-06_15:47:23,77.6771492400529,2917.65501009287,9.298012029348229,245.0200651709131,2.222527211084444,-3.166933188607359,0.00250028007003863,0.0,FuelLeak,0.6,,,,None
2025-12-06_15:47:25,12.95017806792473,77.67714923512276,2917.655480236366,9.300018941815198,245.0164172786006,2.206641360845294,-3.148957348679577,-0.001360330791753748,Normal,0.465,,,,None
2025-12-06_15:47:27,12.9501780532232,77.67714923330308,2917.655307205769,9.299928085721259,245.0078092914557,2.205353549231944,-3.152679691802525,-0.001446003717128049,Normal,0.465,,,,None
2025-12-06_15:47:28,12.9501780403209,77.67714923186811,2917.655141773492,9.294535438060256,245.0011918793674,2.203814406022803,-3.154299951010388,0.001383415470387451,Normal,0.465,,,,None
2025-12-06_15:47:30,12.95017803034405,77.67714923005262,2917.655098507242,9.299877185051924,244.9946608056073,2.200949361569601,-3.157671220289975,-0.001627250120268983,Normal,0.465,,,,None
2025-12-06_15:47:31,12.95017801304487,77.6771492280673,2917.654890329617,9.294530270412615,244.9855472739191,2.198471059789571,-3.161201093873186,0.001245726283503372,Normal,0.465,,,,None
2025-12-06_15:47:32,12.9501780009016,77.67714922632474,2917.654764909859,9.294648061213012,244.9786219553137,2.195663277438443,-3.16436470250768,0.001195338539716352,Normal,0.465,,,,None
2025-12-06_15:47:34,12.95017799267991,77.67714922490242,2917.654707637053,9.299939849749853,244.9729754479271,2.194089345464473,-3.16744043685605,-0.001571413486868189,Normal,0.465,,,,None
2025-12-06_15:47:35,12.95017797550334,77.67714922276191,2917.654520660001,9.294548249748825,244.9640231299019,2.190536074049362,-3.170729943666436,0.00124583529843662,Normal,0.465,,,,None
2025-12-06_15:47:36,0.0,12.95017796813192,77.67714922178838,2917.654450932741,9.294541485850964,244.9597699197557,2.189238982019547,-3.17292639786561,FuelLeak,0.85,,,,None
2025-12-06_15:47:38,0.001292733370452642,0.0,12.95017796813192,77.67714922178838,2917.654450932741,9.294541485850964,244.9597699197557,2.189238982019547,FuelLeak,0.6,,,,None
2025-12-06_15:47:41,-3.17292639786561,0.001292733370452642,0.0,12.95017795791258,77.67714922033426,2917.654374680588,9.294612486803034,244.9538950380085,FuelLeak,0.74,,,,None
2025-12-06_15:47:42,2.187058762876504,-3.175375369074315,0.001423035464785479,0.0,12.95017793645573,77.67714921714669,2917.654176772984,9.299941822320678,FuelLeak,0.72,,,,None
2025-12-06_15:47:44,244.9406062462999,2.182856542729635,-3.182561230562572,-0.001308945247675937,0.0,12.95017793091429,77.67714921669047,2917.654120466997,EngineFailure,0.525,,,,None
2025-12-06_15:47:45,9.294582853347832,244.9382855063726,2.182075860836734,-3.182830224429837,0.001252643105950668,0.0,12.95017790256396,77.67714923537063,FuelLeak,0.68,,,,None
2025-12-06_15:47:47,2917.648951175429,9.294475565564015,244.9148451555608,2.263555440339156,-3.30350266275315,0.001414727692497989,0.0,12.95017788649184,FuelLeak,0.68,,,,None
2025-12-06_15:47:48,77.67714923299577,2917.648804619875,9.299895551403491,244.9042042624102,2.261311008449667,-3.308180941975124,-0.001659595695258617,0.0,FuelLeak,0.6,,,,None
2025-12-06_15:47:50,12.95017787857481,77.67714923186841,2917.648725472684,9.29989570487023,244.8994677290449,2.259744676401022,-3.309672293570683,-0.001713377870163543,Normal,0.465,,,,None
2025-12-06_15:47:51,12.9501778584148,77.67714922915731,2917.648508144493,9.299942081039868,244.8872816635274,2.256757037131485,-3.313626798763249,-0.001447656908089565,Normal,0.465,,,,None
2025-12-06_15:47:52,12.9501778482861,77.6771492277895,2917.64838797623,9.299837635941,244.8811814806362,2.255072435528561,-3.315853880544501,-0.001411801440718106,Normal,0.465,,,,None
2025-12-06_15:47:53,12.95017783233901,77.67714922555488,2917.64818045861,9.299922775360725,244.8715687905742,2.252211306353781,-3.318730204989881,-0.001393808111021122,Normal,0.465,,,,None
2025-12-06_15:47:55,12.950177815043,77.67714921663148,2917.646354601769,9.293883611053657,244.8669514533932,2.204332983796551,-3.319107154559362,0.006106750249816005,Normal,0.465,,,,None
2025-12-06_15:47:56,12.95017779542679,77.67714919711601,2917.642865253362,9.296898917249308,244.8666165905811,2.087540418436161,-3.322294902316762,-0.005602037239584939,Normal,0.465,,,,None
2025-12-06_15:47:57,12.9501777784795,77.67714918848971,2917.641811293175,9.294791697143031,244.8621642684489,2.040183620148713,-3.322260397130599,0.001300297555425855,Normal,0.465,,,,None
2025-12-06_15:47:59,12.9501777656972,77.67714918713034,2917.641578076728,9.294590967924083,244.8539932735656,2.040732697358194,-3.324028989108057,0.001118461673231055,Normal,0.465,,,,None
2025-12-06_15:48:03,12.95017773673467,77.67714922108384,2917.633264047242,9.298838861884274,244.8235044119037,2.188181617205588,-3.512166646059451,-0.001079372176727643,Normal,0.465,,,,None
2025-12-06_15:48:05,0.0,12.95017772517183,77.67714921847622,2917.633089999141,9.299951241225031,244.8168330081085,2.179530023969194,-3.512375433750761,FuelLeak,0.85,,,,None
2025-12-06_15:48:09,-0.00173985837459729,0.0,12.95017771545441,77.67714921721294,2917.632899681302,9.299841422930655,244.8104455550197,2.178756596042037,FuelLeak,0.6,,,,None
2025-12-06_15:48:11,-3.512564591754377,-0.001493638543604774,0.0,12.95017770572319,77.67714921599267,2917.632757434182,9.299878232472283,244.8040367993631,FuelLeak,0.74,,,,None
2025-12-06_15:48:13,2.178178790967884,-3.512881034446605,-0.001330220107714457,0.0,12.95017768456859,77.67714921322639,2917.632366105151,9.299893101446104,FuelLeak,0.72,,,,None
2025-12-06_15:48:15,244.790102555238,2.176584815883853,-3.512919915933887,-0.00167146906066791,0.0,12.95017766832465,77.67714921192041,2917.632113030926,EngineFailure,0.525,,,,None
2025-12-06_15:48:16,9.294526668002813,244.779989205952,2.179021362651377,-3.512280050220767,0.001251333525656034,0.0,12.95017765786073,77.67714921050143,FuelLeak,0.68,,,,None
2025-12-06_15:48:18,2917.631902311787,9.294575112250241,244.7731049611308,2.178048533577233,-3.512038197590368,0.001299119134185013,0.0,12.9501776366615,FuelLeak,0.68,,,,None
2025-12-06_15:48:22,77.67714920901507,2917.631198160582,9.294542320944226,244.7586611604955,2.182050422996327,-3.517589529448111,0.001285878231996654,0.0,FuelLeak,0.6,,,,None
2025-12-06_15:48:24,12.95017762389175,77.6771492073342,2917.630957824614,9.294543308834683,244.7501571326446,2.181501002480736,-3.516835170692912,0.001217947146963483,Normal,0.465,,,,None
2025-12-06_15:48:25,12.95017761247904,77.67714920566509,2917.630708728761,9.299847492892274,244.7414353198339,2.181853923992342,-3.516885788055022,-0.001451042227599523,Normal,0.465,,,,None
2025-12-06_15:48:26,12.95017760168069,77.67714920424673,2917.630507568905,9.29983385738583,244.7342086255238,2.181600265946869,-3.515958549804627,-0.001627314533016218,Normal,0.465,,,,None
2025-12-06_15:48:28,12.95017759083242,77.67714920283876,2917.630213952837,9.299921007651387,244.7269705351877,2.181220176724523,-3.515464402815095,-0.001558034057458513,Normal,0.465,,,,None
2025-12-06_15:48:29,12.95017757499003,77.67714920115023,2917.629872154146,9.29457444242189,244.7172961463045,2.181589948496729,-3.513457131081743,0.001181577307923401,Normal,0.465,,,,None
2025-12-06_15:48:32,12.95017756485811,77.67714919962724,2917.629638212932,9.299894834293807,244.7094422924179,2.181894437044784,-3.513534470747354,-0.001549413096391088,Normal,0.465,,,,None
2025-12-06_15:48:34,12.95017755344047,77.67714918979158,2917.631123627106,9.29459114455337,244.7053346586048,2.147646907718843,-3.469650552999714,0.001182049508500898,Normal,0.465,,,,None
2025-12-06_15:48:35,12.95017754123258,77.67714918878495,2917.630811528993,9.294507542262068,244.6968069990601,2.15122178913043,-3.46930455531611,0.001105014026408017,Normal,0.465,,,,None
2025-12-06_15:48:37,12.95017750718152,77.67714915764088,2917.633563868015,9.294534725841942,244.68273678188,2.036524655387314,-3.355023842210844,0.006852722005725645,Normal,0.465,,,,None
2025-12-06_15:48:38,12.95017749373746,77.67714914014546,2917.634146013484,9.291422930637053,244.6821254626998,1.957709697600315,-3.299234655343114,-0.00519528669934109,Normal,0.465,,,,None
2025-12-06_15:48:39,0.0,12.95017744709695,77.67714912482103,2917.631724949333,9.294638056431099,244.6591115929951,1.894856194761138,-3.29430838334325,FuelLeak,0.85,,,,None
2025-12-06_15:48:41,0.00130151697755044,0.0,12.95017743442838,77.67714912296556,2917.631376658727,9.299996923495339,244.6498260439895,1.895863912040167,FuelLeak,0.6,,,,None
2025-12-06_15:48:42,-3.293343633165179,-0.001538940443165821,0.0,12.9501774073713,77.67714911969874,2917.630655976966,9.299936771993199,244.6321209534805,FuelLeak,0.74,,,,None
2025-12-06_15:48:46,1.898068587754597,-3.290644217430933,-0.001702371120875193,0.0,12.95017739473995,77.67714911815489,2917.630289134709,9.29999706917746,FuelLeak,0.72,,,,None
2025-12-06_15:48:48,244.6238066316467,1.899333703385699,-3.288811293159585,-0.001581237698523304,0.0,12.95017738237042,77.67714911666523,2917.629928826445,EngineFailure,0.525,,,,None
2025-12-06_15:48:49,9.299885820102597,244.6156795900617,1.900569990999287,-3.287337759089586,-0.001491602810281716,0.0,12.95017736777958,77.67714911491332,FuelLeak,0.68,,,,None
2025-12-06_15:48:50,2917.629519815274,9.299867131387995,244.606116837481,1.90194357931661,-3.285758839036219,-0.001577147788989293,0.0,12.95017730871667,FuelLeak,0.68,,,,None
2025-12-06_15:48:52,77.67714914033124,2917.621031025283,9.294409820762803,244.558967359786,2.031019874018949,-3.440678533434292,0.001105179199765471,0.0,FuelLeak,0.6,,,,None
2025-12-06_15:48:53,12.95017729831779,77.67714913880194,2917.620709893131,9.299841854813016,244.5508729049155,2.032111825407454,-3.439820353873531,-0.001637699580607388,Normal,0.465,,,,None
2025-12-06_15:48:54,12.95017728551263,77.67714913740781,2917.620373926911,9.294472845193145,244.5433534069068,2.032066100498542,-3.437762333436548,0.001244203476515529,Normal,0.465,,,,None
2025-12-06_15:48:55,12.95017727515195,77.67714913574322,2917.620058250583,9.299825451914169,244.535339046112,2.032560265249099,-3.436358689611284,-0.001629228754231925,Normal,0.465,,,,None
2025-12-06_15:48:57,12.95017725516653,77.67714913328994,2917.619523011543,9.299745406464288,244.5219124220602,2.033630429653906,-3.434398884410815,-0.001622723906878641,Normal,0.465,,,,None
2025-12-06_15:48:58,12.95017724382982,77.67714913185695,2917.619218033017,9.29980048555785,244.5142319030266,2.034497418216739,-3.432409854668507,-0.001723077319349152,Normal,0.465,,,,None
2025-12-06_15:48:59,12.95017722117468,77.67714912431411,2917.619637906586,9.294483186350883,244.501521468938,2.016029065222844,-3.404554272702701,0.001231300108117643,Normal,0.465,,,,None
2025-12-06_15:49:00,12.95017721919931,77.67714916466723,2917.627260498905,9.299987542376744,244.4666052788674,2.297809352363669,-3.404251977533239,-0.001469809954324935,Normal,0.465,,,,None
2025-12-06_15:49:02,12.95017720576292,77.67714916406233,2917.626816336338,9.29464056144944,244.4580291963599,2.304618315692565,-3.402268346467633,0.001110948765185068,Normal,0.465,,,,None
2025-12-06_15:49:04,12.95017719559222,77.67714916267805,2917.626553247831,9.294667251341915,244.4514254820145,2.30465477702784,-3.401657696723868,0.001166506516851748,Normal,0.465,,,,None
2025-12-06_15:49:06,12.95017718436676,77.67714916060457,2917.626230433329,9.29996156325846,244.4432584733302,2.303515410739388,-3.400881747068616,-0.001720431094674354,Normal,0.465,,,,None
2025-12-06_15:49:10,12.95017717582832,77.67714915938608,2917.625985589884,9.299936981115517,244.4377178378701,2.303405445646076,-3.400024252613752,-0.00173844566910097,Normal,0.465,,,,None
2025-12-06_15:49:11,0.0,12.9501771613218,77.67714915727166,2917.625570899831,9.299775046426797,244.4284002582667,2.302582417215388,-3.399073028393757,FuelLeak,0.85,,,,None
2025-12-06_15:49:13,-0.001633202375845589,0.0,12.95017715128884,77.67714914060481,2917.628506847189,9.293833351865846,244.4276382569215,2.241531970341836,FuelLeak,0.6,,,,None
2025-12-06_15:49:15,-3.320779154683588,0.002479578078445877,0.0,12.95017711394946,77.67714913431963,2917.627716261357,9.29458401781114,244.4043666166703,FuelLeak,0.74,,,,None
2025-12-06_15:49:17,2.236271509823239,-3.314434960818129,0.001117109208197916,0.0,12.95017709663776,77.67714913192313,2917.627219296924,9.29537769954773,FuelLeak,0.72,,,,None
2025-12-06_15:49:18,244.39341724985,2.235860539539186,-3.314297801233864,-0.002361490452378664,0.0,12.95017708120126,77.67714913832671,2917.624897522699,EngineFailure,0.525,,,,None
2025-12-06_15:49:20,9.299589916920963,244.3801803324498,2.268548679130254,-3.360400703938879,-0.001702412041216253,0.0,12.95017706708161,77.67714913667533,FuelLeak,0.68,,,,None
2025-12-06_15:49:22,2917.624533022522,9.294564683023614,244.3722439667414,2.267575160033419,-3.360251668359705,0.001088394486505821,0.0,12.95017705351805,FuelLeak,0.68,,,,None
2025-12-06_15:49:23,77.67714913449365,2917.624179564154,9.294520112340402,244.3638067369743,2.265232507137968,-3.359728012980205,0.001056434956683701,0.0,FuelLeak,0.6,,,,None
2025-12-06_15:49:25,12.95017704170745,77.67714913239108,2917.623868330451,9.299853749330103,244.3555455377369,2.263063749044333,-3.3612585584181,-0.001680023405305338,Normal,0.465,,,,None
2025-12-06_15:49:27,12.95017702917391,77.67714913081316,2917.623560052317,9.294531661896633,244.3487028846578,2.261326208170869,-3.360832688251161,0.001290977470945512,Normal,0.465,,,,None
2025-12-06_15:49:28,12.95017701844046,77.67714912892848,2917.623257555445,9.299882085888557,244.341115792385,2.259385515919783,-3.362816278826981,-0.001833671374673415,Normal,0.465,,,,None
2025-12-06_15:49:30,12.95017700729679,77.67714912762628,2917.622977755507,9.29458459246432,244.3351427724311,2.257954129166215,-3.362902492551709,0.001191798112118645,Normal,0.465,,,,None
2025-12-06_15:49:31,12.95017699409824,77.67714912514276,2917.622693800811,9.299852548779068,244.3261516368001,2.254381297943373,-3.364391511499436,-0.001592313870817937,Normal,0.465,,,,None
2025-12-06_15:49:33,12.95017697982481,77.67714912341346,2917.62235086367,9.294545227672376,244.3183137611171,2.252087653626691,-3.365669856276658,0.001218507344537532,Normal,0.465,,,,None
2025-12-06_15:49:34,12.95017697264439,77.6771491219954,2917.622199452446,9.29984327161999,244.3129869031898,2.250218906988062,-3.367453781737245,-0.0005737138419817001,Normal,0.465,,,,None
2025-12-06_15:49:36,12.95017696722624,77.67714912522068,2917.622725576419,9.300030154734841,244.3064637193985,2.276841490881936,-3.3684215830675,-0.001611101531432871,Normal,0.465,,,,None
2025-12-06_15:49:37,12.95017694693095,77.67714912146698,2917.622292575935,9.299810601088522,244.2946101501435,2.267771478182064,-3.370984500050926,-0.001456835318330353,Normal,0.465,,,,None
2025-12-06_15:49:39,12.95017693690999,77.67714911990169,2917.622104353964,9.299830112181473,244.2885310134781,2.265212845403882,-3.372348808674495,-0.001490063229027274,Normal,0.465,,,,None
2025-12-06_15:49:40,12.95017691661963,77.6771491167066,2917.621704636786,9.29985680023916,244.2763690556307,2.259055995560199,-3.376265964615418,-0.001577293804751302,Normal,0.465,,,,None
2025-12-06_15:49:42,12.9501769065194,77.6771491151546,2917.621484804498,9.299864615214902,244.2702615193472,2.256326371705492,-3.378135588209215,-0.001762872080685924,Normal,0.465,,,,None
2025-12-06_15:49:43,0.0,12.95017689632953,77.67714911355553,2917.621283235734,9.299873757559682,244.264166881887,2.253104242327529,-3.380334032700723,FuelLeak,0.85,,,,None
2025-12-06_15:49:44,-0.001468498046461556,0.0,12.95017688606451,77.67714911197528,2917.621121042757,9.299890472373795,244.2580494623242,2.249800342430249,FuelLeak,0.6,,,,None
2025-12-06_15:49:45,-3.382951734356434,-0.001500748091746013,0.0,12.9501768801253,77.67714910053172,2917.623003830813,9.301463014823176,244.2579424198243,FuelLeak,0.74,,,,None
2025-12-06_15:49:47,2.205620180949319,-3.333380353692769,-0.01155048645375085,0.0,12.95017686957667,77.67714907753101,2917.627786090696,9.298606728111015,FuelLeak,0.72,,,,None
2025-12-06_15:49:48,244.2577400501456,2.119749579010349,-3.226277667499341,-0.0007037721859777684,0.0,12.95017685951657,77.6771490757608,2917.627652250353,EngineFailure,0.525,,,,None
2025-12-06_15:49:49,9.299937953885514,244.2519521659292,2.116073374980764,-3.227210987285804,-0.001431664723736415,0.0,12.9501768491523,77.67714907403032,FuelLeak,0.68,,,,None
2025-12-06_15:49:51,2917.627454864061,9.299972568823398,244.2460810666068,2.111867188135888,-3.230024520405173,-0.001683170261840415,0.0,12.95017682831933,FuelLeak,0.68,,,,None
2025-12-06_15:49:52,77.6771490708053,2917.627116713056,9.30004238307545,244.2341889765818,2.104423353008392,-3.236728692879813,-0.001380540122589435,0.0,FuelLeak,0.6,,,,None
2025-12-06_15:49:53,12.95017681786461,77.67714906921125,2917.626950054099,9.299961212449972,244.228216383521,2.10071394363108,-3.240332614752115,-0.001623277249758363,Normal,0.465,,,,None
2025-12-06_15:49:54,12.95017680744985,77.67714906751513,2917.626772223256,9.299939921363842,244.2223001418621,2.096510279379025,-3.243472526307713,-0.001420925044710496,Normal,0.465,,,,None
2025-12-06_15:49:56,12.95017679702774,77.67714906588203,2917.626631676963,9.29994473655453,244.2163447388195,2.092640615783455,-3.24676955261726,-0.001439016901434896,Normal,0.465,,,,None
2025-12-06_15:49:57,12.95017677596871,77.67714906250585,2917.626336628795,9.29996763606681,244.2044496666407,2.083678086783979,-3.254240327937524,-0.001519986598588776,Normal,0.465,,,,None
2025-12-06_15:49:58,12.95017676551954,77.6771490608911,2917.626170583271,9.299988006272121,244.1984625715205,2.079771629222217,-3.257763056710263,-0.001694938981004575,Normal,0.465,,,,None
2025-12-06_15:49:59,12.95017675499525,77.67714905922595,2917.62599827795,9.300000488841311,244.1924871307176,2.0753898384211,-3.261551211022979,-0.001496147904438456,Normal,0.465,,,,None
2025-12-06_15:50:00,12.9501767444167,77.67714905760485,2917.625867332779,9.299917648994885,244.1864766024806,2.071105540696834,-3.265703522311859,-0.001502218170867942,Normal,0.465,,,,None
2025-12-06_15:50:02,12.95017673385588,77.6771490559267,2917.625698624394,9.299841311825935,244.1804879102444,2.066550877531641,-3.269653578564854,-0.001557186980781834,Normal,0.465,,,,None
2025-12-06_15:50:03,12.95017669109096,77.6771491060971,2917.614020359071,9.30083195098024,244.1371576315391,2.280643369005255,-3.545330307603993,-0.002386021228871788,Normal,0.465,,,,None
2025-12-06_15:50:04,12.95017667892907,77.67714909759417,2917.613976562876,9.300043034567503,244.1343157445983,2.235089742935252,-3.540097093888357,-0.0015228159813236,Normal,0.465,,,,None
2025-12-06_15:50:05,12.95017666096747,77.67714908894601,2917.61280474012,9.300224430822999,244.1279794433375,2.187624431984802,-3.544048661154112,0.004515903636672032,Normal,0.465,,,,None
2025-12-06_15:50:06,12.9501766439347,77.67714907304143,2917.609221332411,9.296253481432798,244.127777973329,2.090616780918273,-3.547456445298854,-0.01266050697873498,Normal,0.465,,,,None
2025-12-06_15:50:23,12.95017662680065,77.67714905991443,2917.607069525051,9.293044900775024,244.1267319481879,2.009870370153956,-3.550018204519552,0.0005858086965810764,Normal,0.465,,,,None
2025-12-06_15:50:24,0.0,12.95017661417577,77.67714905734485,2917.605613911632,9.294478029362494,244.1159824550922,2.017295853473819,-3.526837472304525,FuelLeak,0.85,,,,None
2025-12-06_15:50:26,0.001150269189834858,0.0,12.9501766037325,77.67714905555707,2917.605411083454,9.29451597263899,244.1097157624546,2.011577258210859,FuelLeak,0.6,,,,None
2025-12-06_15:50:28,-3.529719610823548,0.001247878162810195,0.0,12.95017658891618,77.67714905309126,2917.605153283126,9.299835443645803,244.0994300443255,FuelLeak,0.74,,,,None
2025-12-06_15:50:29,2.006218695707063,-3.533973767034197,-0.001544051693386043,0.0,12.95017657524415,77.67714905106442,2917.604906715184,9.299772146269557,FuelLeak,0.72,,,,None
2025-12-06_15:50:31,244.0908019374741,2.001656912280443,-3.536546502764903,-0.001305203321707683,0.0,12.95017656160008,77.67714904898813,2917.604505571807,EngineFailure,0.525,,,,None
2025-12-06_15:50:32,9.300818572190813,244.0824164296161,1.99568395319266,-3.540621691964229,-0.002434462310832543,0.0,12.95017654725414,77.67714904834556,FuelLeak,0.68,,,,None
2025-12-06_15:50:33,2917.604188463843,9.294628402622063,244.0738199336367,1.996834193902183,-3.546506246315491,0.001166618631780195,0.0,12.95017653643586,FuelLeak,0.68,,,,None
2025-12-06_15:50:35,77.6771490463805,2917.603981197555,9.299967786946743,244.0660044391566,1.992567713789575,-3.549225352283531,-0.001629712873879168,0.0,FuelLeak,0.6,,,,None
2025-12-06_15:50:36,12.95017652129792,77.6771490446104,2917.603679694857,9.294696560907353,244.0574073860422,1.988147384842337,-3.55231733905933,0.001226675830182636,Normal,0.465,,,,None
2025-12-06_15:50:37,12.95017650965792,77.67714904252915,2917.603475607196,9.299955963562557,244.049043484508,1.983678174442053,-3.555072514945069,-0.001484807406409618,Normal,0.465,,,,None
2025-12-06_15:50:38,12.95017649815738,77.67714904133464,2917.603246108613,9.294735226862203,244.0426707398247,1.98092123949011,-3.557127562214754,0.001109197505276831,Normal,0.465,,,,None
2025-12-06_15:50:40,12.95017648467261,77.67714903943931,2917.602964347378,9.294695970921515,244.0340467145855,1.976853989633074,-3.55985449658355,0.001371873527132996,Normal,0.465,,,,None
2025-12-06_15:50:41,12.95017647527234,77.67714903769847,2917.602796266453,9.299883047146439,244.0271547698573,1.972795942433757,-3.562813474039635,-0.001548403882902072,Normal,0.465,,,,None
2025-12-06_15:50:42,12.95017646256101,77.67714903618811,2917.602534516155,9.294726536304127,244.0199891807977,1.968293399851134,-3.565560311025819,0.001283021444519808,Normal,0.465,,,,None
2025-12-06_15:50:43,12.95017647002069,77.6771490541635,2917.610479843841,9.302165942688191,244.0020838501771,2.133301496560235,-3.492614531548293,-0.001912592407415427,Normal,0.465,,,,None
2025-12-06_15:50:44,12.95017645909975,77.67714903893221,2917.613710196415,9.292282628731996,244.0022749172444,2.065021610047687,-3.44144717981059,0.004531004956584073,Normal,0.465,,,,None
2025-12-06_15:50:46,12.95017644962497,77.67714903467005,2917.613828007083,9.30009413783275,243.9961732820458,2.052097703099727,-3.431345269495557,-0.00157871999062354,Normal,0.465,,,,None
2025-12-06_15:50:47,12.95017643971966,77.6771490330579,2917.613616544433,9.300014732242897,243.9901987152875,2.048047196517096,-3.433539315143138,-0.001470940507004787,Normal,0.465,,,,None
2025-12-06_15:50:48,12.95017642939102,77.67714903150471,2917.613410509692,9.299998786309319,243.9838474599609,2.044778809197367,-3.435689334832473,-0.00144865892250022,Normal,0.465,,,,None
2025-12-06_15:50:49,12.95017641237425,77.67714902935376,2917.613022285301,9.294750998117841,243.9742613549399,2.040292497719597,-3.438401502028044,0.001159948138161521,Normal,0.465,,,,None
2025-12-06_15:50:50,12.95017640941933,77.67714902883198,2917.612938728279,9.2946701619247,243.9724265584182,2.039227244901359,-3.438407751365162,0.001211392353766239,Normal,0.465,,,,None
2025-12-06_15:50:51,12.95017640941933,77.67714902883198,2917.612938728279,9.2946701619247,243.9724265584182,2.039227244901359,-3.438407751365162,0.001211392353766239,Normal,0.465,,,,None
2025-12-06_15:50:53,0.0,12.95017639081541,77.67714902570458,2917.612580064663,9.300023264342462,243.9599813531646,2.033036466124772,-3.442906401430946,FuelLeak,0.85,,,,None
2025-12-06_15:50:54,-0.001629873288303048,0.0,12.95017638082252,77.67714902419047,2917.612347647746,9.299987390400204,243.9538287615481,2.029720665818673,FuelLeak,0.6,,,,None
2025-12-06_15:50:55,-3.445030241970131,-0.001675665222227089,0.0,12.9501763564625,77.6771490166104,2917.610968954041,9.294416483517438,243.9430061218349,FuelLeak,0.74,,,,None
2025-12-06_15:50:57,1.993431637570479,-3.448082558989808,0.006664945402290189,0.0,12.95017633517471,77.67714899632377,2917.607219738276,9.297968746856236,FuelLeak,0.72,,,,None
2025-12-06_15:50:58,243.9418259252812,1.871507985433612,-3.450449108371657,-0.01132467004938335,0.0,12.95017631531267,77.67714898382262,2917.604902109032,EngineFailure,0.525,,,,None
2025-12-06_15:50:59,9.300279088719812,243.9369242568534,1.799052400765965,-3.453559593521693,-0.001666024048496963,0.0,12.95017630187483,77.67714898197333,FuelLeak,0.68,,,,None
2025-12-06_15:51:01,2917.604571152455,9.300079372525461,243.9283153684522,1.795933430974727,-3.455372155395538,-0.001676033573248212,0.0,12.95017628934745,FuelLeak,0.68,,,,None
2025-12-06_15:51:02,77.67714898025791,2917.604252218274,9.299989601751323,243.9203272314336,1.792804374530744,-3.457518152845394,-0.00152831142772731,0.0,FuelLeak,0.6,,,,None
2025-12-06_15:51:03,12.95017627192737,77.67714898214007,2917.602930272145,9.299871332538881,243.9079859987749,1.805233159329247,-3.481085798986298,-0.001613878824433793,Normal,0.465,,,,None
2025-12-06_15:51:04,12.95017625977214,77.67714898081132,2917.602624898545,9.294587639484474,243.901165470929,1.80258578640002,-3.482323025656278,0.001101357921538594,Normal,0.465,,,,None
2025-12-06_15:51:06,12.95017625003137,77.677148979046,2917.602414198049,9.299809393715172,243.8940193015924,1.799005032144043,-3.484620494792233,-0.001509270334403478,Normal,0.465,,,,None
2025-12-06_15:51:07,12.95017624108671,77.67714897781559,2917.602188110706,9.299960457866925,243.8882424460376,1.796891510097943,-3.485770952859713,-0.001643632603691988,Normal,0.465,,,,None
2025-12-06_15:51:08,12.95017622633847,77.67714897577832,2917.601811597451,9.300053639033942,243.8787262440258,1.793292282015455,-3.487682950389301,-0.001745925989264635,Normal,0.465,,,,None
2025-12-06_15:51:09,12.9501762148126,77.67714897413394,2917.601502166885,9.300002891628772,243.8712655942116,1.79043187364033,-3.488677523775753,-0.001457097752459778,Normal,0.465,,,,None
2025-12-06_15:51:10,12.95017620359617,77.6771489726218,2917.601233097345,9.299992488076944,243.8639714160425,1.788054377427465,-3.489955109791866,-0.001690451998588099,Normal,0.465,,,,None
2025-12-06_15:51:11,12.95017619216688,77.67714897103436,2917.600918856925,9.300068610080109,243.8565882599193,1.785195733574046,-3.491400217017624,-0.001663109530954073,Normal,0.465,,,,None
2025-12-06_15:51:13,12.95017617847111,77.67714896913276,2917.600586622347,9.299997101458402,243.8477049464202,1.781970911988915,-3.492834444735049,-0.001521990080508012,Normal,0.465,,,,None
2025-12-06_15:51:14,12.95017616623893,77.67714896774686,2917.60023068247,9.294689931724283,243.840680163979,1.779792177647553,-3.492749778498583,0.001030742203075331,Normal,0.465,,,,None
2025-12-06_15:51:15,12.95017615545914,77.67714896609348,2917.599953345579,9.300041583969263,243.8326372063983,1.777585027252123,-3.495307807650917,-0.00165924009904076,Normal,0.465,,,,None
2025-12-06_15:51:16,12.95017613604172,77.67714898550902,2917.595097899231,9.293799851496084,243.8143970675073,1.861724940941861,-3.597483571364687,0.0013831432095985,Normal,0.465,,,,None
2025-12-06_15:51:18,12.95017612514792,77.67714898205924,2917.594804185571,9.30005802443505,243.8073409019237,1.848274793118004,-3.59760259945027,-0.001699602807603694,Normal,0.465,,,,None
2025-12-06_15:51:19,12.95017611144616,77.67714898011212,2917.594457103162,9.299969978557812,243.7982063057314,1.844957684962786,-3.598113588277881,-0.0018183208980463,Normal,0.465,,,,None
2025-12-06_15:51:20,12.95017610035354,77.67714897893678,2917.594138526923,9.294680536677982,243.7917832512125,1.843034144058786,-3.598075415050913,0.001078993269546391,Normal,0.465,,,,None
2025-12-06_15:51:21,0.0,12.95017609049276,77.67714897510315,2917.594864113385,9.296819521807413,243.7843971613315,1.834334318240376,-3.585434264066254,FuelLeak,0.85,,,,None
2025-12-06_15:51:23,0.0002589363904401181,0.0,12.95017608059803,77.6771489597868,2917.597087360265,9.293994951575533,243.7829522394157,1.775380756747976,FuelLeak,0.6,,,,None
2025-12-06_15:51:24,-3.517469779284394,0.001684440534878939,0.0,12.95017607139076,77.67714895830619,2917.596863099255,9.299971200300968,243.7756746832608,FuelLeak,0.74,,,,None
2025-12-06_15:51:25,1.774514491384521,-3.517577619019265,-0.001497893604381878,0.0,12.9501760561181,77.67714895660231,2917.596421157916,9.2947383064719,FuelLeak,0.72,,,,None
2025-12-06_15:51:27,243.7666201832084,1.771799025306797,-3.518450038292741,0.001119950716540699,0.0,12.95017604359268,77.67714895481488,2917.59605021683,EngineFailure,0.525,,,,None
2025-12-06_15:51:28,9.294701537619465,243.7582580405237,1.76954343544805,-3.518006411963896,0.001194620296588703,0.0,12.95017603244485,77.67714895458693,FuelLeak,0.68,,,,None
2025-12-06_15:51:29,2917.595919471445,9.29466925440436,243.7498622806498,1.776198631901478,-3.518823282911451,0.000992039548600696,0.0,12.95017602154286,FuelLeak,0.68,,,,None
2025-12-06_15:51:31,77.67714894205126,2917.597809081234,9.29455772792583,243.7458195172881,1.730341044101933,-3.466430234006723,0.001202779279400488,0.0,FuelLeak,0.6,,,,None
2025-12-06_15:51:32,12.9501760115747,77.67714894110182,2917.597495533357,9.299965388015584,243.7377357315524,1.732983056491143,-3.468136230766147,-0.001608492020872803,Normal,0.465,,,,None
2025-12-06_15:51:33,12.95017599889102,77.67714893959418,2917.597143720166,9.294732691399394,243.7304485860689,1.730528893574062,-3.46771808765393,0.001141774277076105,Normal,0.465,,,,None
2025-12-06_15:51:35,12.95017598549339,77.67714893779188,2917.59670162561,9.29469766804859,243.7215719516898,1.728561902422238,-3.467960573894255,0.001223444759019943,Normal,0.465,,,,None
2025-12-06_15:51:36,12.95017597709734,77.67714893636733,2917.596456322103,9.299905092114614,243.7150016330492,1.727165960771702,-3.468871746567304,-0.001756315251353316,Normal,0.465,,,,None
2025-12-06_15:51:37,12.95017596380563,77.67714893482062,2917.596039671019,9.294698317955358,243.7071651862129,1.725444822700604,-3.467639939054258,0.001180385877992271,Normal,0.465,,,,None
2025-12-06_15:51:38,12.9501759516317,77.6771489332556,2917.595651302928,9.294642350859835,243.6991000140777,1.723845700172629,-3.46836904630634,0.001137567002904511,Normal,0.465,,,,None
2025-12-06_15:51:39,12.95017594319749,77.67714893175823,2917.595379440622,9.299923734420535,243.6924616457013,1.722457917315057,-3.468519204904092,-0.001682962009168332,Normal,0.465,,,,None
2025-12-06_15:51:40,12.95017593230382,77.67714893021854,2917.595053526456,9.29988481509805,243.6852292735853,1.720750933479831,-3.468060690250972,-0.001436039240693322,Normal,0.465,,,,None
2025-12-06_15:51:42,12.95017591915173,77.67714892845585,2917.594602481394,9.299950248137085,243.6764562250782,1.719110931836776,-3.467918416246285,-0.001614472301163994,Normal,0.465,,,,None
2025-12-06_15:51:43,12.95017590663567,77.67714892681433,2917.594241132146,9.299852521982334,243.6680912709221,1.717779112225699,-3.467820050788306,-0.001825528499205683,Normal,0.465,,,,None
