time,lat,lon,alt_ft,airspeed_kt,heading_deg,pitch_deg,roll_deg,vsi_fps,pred,f_prob,target_icao,cmd_heading,cmd_alt,cmd_throttle
2025-10-19_12:14:14,39.87026633605429,-104.7109254010236,-1.09443313906053,10.16328768348945,150.4219960917294,-26.46446465235589,179.0488914160911,-4.414942926200078,FuelLeak,0.51,,,,None
2025-10-19_12:14:19,0.0,39.87026636858445,-104.7109254271768,-1.08923787832997,10.16332225743766,150.3892284149525,-26.46533031112501,179.0992574668327,FuelLeak,0.635,,,,None
2025-10-19_12:14:21,0.002689456756410611,0.0,39.87026638978158,-104.7109254463457,-1.086053803940916,10.1633429275495,150.3636789072309,-26.4651654455352,FuelLeak,0.775,,,,None
2025-10-19_12:14:24,179.1470229200811,-9.522499128279032,0.0,39.87026640652715,-104.7109254615839,-1.083165114548727,10.16335404736184,150.3444808528539,FuelLeak,0.685,,,,None
2025-10-19_12:14:25,-26.46408937315953,179.1712172799122,-0.0001142250064823797,0.0,39.87026641993517,-104.7109254738558,-1.080812266149981,10.15953430058497,FuelLeak,0.595,,,,None
2025-10-19_12:14:27,150.3307811952529,-26.4638706613073,179.199506213223,-0.0001415993534111979,0.0,39.87026643065568,-104.7109254836629,-1.079035705807471,EngineFailure,0.715,,,,None
2025-10-19_12:14:28,10.15953509898066,150.3171205801165,-26.46368979968336,179.2264782496973,0.002622609886164856,0.0,39.87026644188001,-104.7109254939072,FuelLeak,0.755,,,,None
2025-10-19_12:14:30,-1.077300462607198,10.16335820415005,150.3033060929518,-26.46432418913571,179.2442957684711,-0.0002092532907673039,0.0,39.87026645226321,FuelLeak,0.655,,,,None
2025-10-19_12:14:31,-104.7109255034421,-1.075571354164977,10.15953035658821,150.290064028813,-26.46318968441874,179.2679212909634,-0.00023224666258229,0.0,FuelLeak,0.73,,,,None
2025-10-19_12:14:32,39.87026646305106,-104.7109255133087,-1.073908406657872,10.15952220443424,150.2768818294642,-26.46291968087949,179.291454240498,-0.0002754130269439397,FuelLeak,0.515,,,,None
2025-10-19_12:14:33,0.0,39.87026647248805,-104.710925521931,-1.072494192534314,10.15951481122334,150.2655491158098,-26.46267744965082,179.3117042450562,FuelLeak,0.635,,,,None
2025-10-19_12:14:34,-0.0003120381813986983,0.0,39.87026648148007,-104.7109255301322,-1.071185888483868,10.15950315722263,150.2549617298669,-26.4624459664744,FuelLeak,0.775,,,,None
2025-10-19_12:14:36,179.3306226046642,-0.0003527225133126682,0.0,39.87026649156142,-104.7109255392786,-1.069849711647408,10.16331415705479,150.2436428217758,FuelLeak,0.685,,,,None
2025-10-19_12:14:37,-26.46311735997654,179.3508379468346,0.002572009824679377,0.0,39.87026650164502,-104.710925548462,-1.068403793131206,10.15946994925529,FuelLeak,0.595,,,,None
2025-10-19_12:14:38,150.2319971177805,-26.46195656221463,179.3716470752861,-0.00045957644113252,0.0,39.8702665115703,-104.710925557415,-1.067198633045728,EngineFailure,0.715,,,,None
2025-10-19_12:14:39,10.16327279922589,150.2214123222508,-26.46268927835695,179.3905261286948,0.002562069666136942,0.0,39.87026651985364,-104.7109255649175,FuelLeak,0.755,,,,None
2025-10-19_12:14:40,-1.066092152533402,10.15942648218671,150.212272798531,-26.46159067321302,179.4068310225776,-0.0005769780240865571,0.0,39.87026653177227,FuelLeak,0.655,,,,None
2025-10-19_12:14:42,-104.7109255756061,-1.064773561073059,10.16321744410847,150.2001675139194,-26.46240086334408,179.4283827457163,0.002549351891435386,0.0,FuelLeak,0.73,,,,None
2025-10-19_12:14:43,39.87026654181351,-104.7109255846261,-1.063594428926042,10.15935889414757,150.1897945975044,-26.46135928004702,179.4468432665541,-0.0007467916436743015,FuelLeak,0.515,,,,None
2025-10-19_12:14:44,0.0,39.87026655110112,-104.7109255928861,-1.062722953618571,10.16315239874351,150.1809689364422,-26.46236517367775,179.462517908735,FuelLeak,0.635,,,,None
2025-10-19_12:14:45,0.002527969316046545,0.0,39.87026655962757,-104.7109256004692,-1.061912649084544,10.16311291192427,150.1728452602826,-26.46246152042406,FuelLeak,0.775,,,,None
2025-10-19_12:14:47,179.476939334972,0.002524489703540802,0.0,39.8702665765494,-104.7109256154822,-1.060419139083494,10.15919929364188,150.1570234231409,FuelLeak,0.685,,,,None
2025-10-19_12:14:48,-26.46187516569634,179.5050279539439,-0.001123629168627432,0.0,39.87026658773822,-104.7109256253483,-1.059637291266039,10.15913193540688,FuelLeak,0.595,,,,None
2025-10-19_12:14:49,150.1471041154488,-26.46242680854557,179.5226361274563,-0.001288744749722087,0.0,39.87026659830754,-104.7109256346184,-1.059099763621664,EngineFailure,0.715,,,,None
2025-10-19_12:14:50,10.16288597069691,150.1382027122353,-26.46431027482779,179.5384486998188,0.002449432440965022,0.0,39.8702666102297,-104.7109256451049,FuelLeak,0.755,,,,None
2025-10-19_12:14:51,-1.058502521540087,10.15896668351047,150.1278792684547,-26.46446797244031,179.5568571661575,-0.001709594446845815,0.0,39.8702666232064,FuelLeak,0.655,,,,None
2025-10-19_12:14:52,-104.710925656453,-1.058233813552345,10.16267580659915,150.117320611893,-26.46763819308724,179.5757579963407,0.002322729976531057,0.0,FuelLeak,0.73,,,,None
2025-10-19_12:14:53,39.87026663414907,-104.710925666069,-1.058095594219118,10.15873673145414,150.1080619318728,-26.46880345032731,179.5924669758379,-0.002369898898344705,FuelLeak,0.515,,,,None
2025-10-19_12:14:54,0.0,39.87026664854264,-104.7109256786872,-1.058444102918665,10.16239993818437,150.0963587197641,-26.4744217094791,179.6137968414759,FuelLeak,0.635,,,,None
2025-10-19_12:14:56,0.002005629215755271,0.0,39.87026666302076,-104.7109256915047,-1.059203521764267,10.1583869296134,150.0837608167818,-26.47963665990889,FuelLeak,0.775,,,,None
2025-10-19_12:14:57,179.6371662724323,-0.003740978698034826,0.0,39.87026667884505,-104.7109257056406,-1.060949510680184,10.15818052745838,150.0693118311078,FuelLeak,0.685,,,,None
2025-10-19_12:14:58,-26.49033421171942,179.6646050305053,-0.004963594673225044,0.0,39.87026669276888,-104.7109257182959,-1.063480129807268,10.15804060073098,FuelLeak,0.595,,,,None
2025-10-19_12:14:59,150.0550872012334,-26.50433126435194,179.6923762399918,-0.006371613486287474,0.0,39.87026671037437,-104.7109257346506,-1.06825376027142,EngineFailure,0.715,,,,None
2025-10-19_12:15:00,10.16185036388279,150.0341965209957,-26.53067493608339,179.7343652637381,-0.001188608935282098,0.0,39.87026672715611,-104.7109257504595,FuelLeak,0.755,,,,None
2025-10-19_12:15:01,-1.073253306634327,10.1619659713956,150.0114059602527,-26.55617834930699,179.7809775230345,-0.0005283922403201786,0.0,39.8702667402647,FuelLeak,0.655,,,,None
2025-10-19_12:15:03,-104.7109257623625,-1.075967798676279,10.16207821682947,149.9954765828217,-26.56963439647402,179.8133131858911,0.0006597699851255824,0.0,FuelLeak,0.73,,,,None
2025-10-19_12:15:04,39.87026675478421,-104.710925774898,-1.0776759112187,10.15836134929204,149.9809091500796,-26.57648557705348,179.8423277181943,-0.003722168253416874,FuelLeak,0.515,,,,None
2025-10-19_12:15:05,0.0,39.87026676991723,-104.7109257873904,-1.078758532013433,10.1584777033664,149.9684952379225,-26.58046597064028,179.8665834839616,FuelLeak,0.635,,,,None
2025-10-19_12:15:07,-0.003076065504894705,0.0,39.87026678238254,-104.7109257973827,-1.079415430373412,10.16239925708037,149.959644305188,-26.58271511662707,FuelLeak,0.775,,,,None
2025-10-19_12:15:08,179.8836395293189,0.001737739394228027,0.0,39.87026679591026,-104.7109258080138,-1.079911868865807,10.16246390076189,149.9506359518231,FuelLeak,0.685,,,,None
2025-10-19_12:15:09,-26.58192542883065,179.9008441271911,0.001734964153266804,0.0,39.87026681178278,-104.7109258202772,-1.080424522475533,10.16252287050653,FuelLeak,0.595,,,,None
2025-10-19_12:15:10,149.9408287358836,-26.57885790928383,179.9194376146017,0.001656389469937955,0.0,39.87026682550947,-104.7109258307572,-1.080846276045854,EngineFailure,0.715,,,,None
2025-10-19_12:15:11,10.15871328163966,149.9326420785074,-26.57316103384563,179.9348993968372,-0.002405490358564488,0.0,39.87026684068057,-104.7109258422871,FuelLeak,0.755,,,,None
2025-10-19_12:15:12,-1.081535369672392,10.16257773825235,149.9242118764473,-26.56761659066136,179.9507924882261,0.001363787871007778,0.0,39.87026685566015,FuelLeak,0.655,,,,None
2025-10-19_12:15:14,-104.7109258536676,-1.082354584379886,10.16258909272012,149.9158769050901,-26.55885080511938,179.9665438248377,0.001168865141087309,0.0,FuelLeak,0.73,,,,None
2025-10-19_12:15:15,39.87026686886044,-104.7109258637371,-1.083256982405783,10.16260196793552,149.9085999960028,-26.54950088269358,179.980329979203,0.000996604089488909,FuelLeak,0.515,,,,None
2025-10-19_12:15:16,0.0,39.87026687891335,-104.7109258714477,-1.084046465520775,10.16261593966081,149.9030930516626,-26.54152421104756,179.9907822361041,FuelLeak,0.635,,,,None
2025-10-19_12:15:17,0.0009034668574706865,0.0,39.87026689179333,-104.7109258813755,-1.085120073781095,10.16265015944508,149.8961698646289,-26.53063942050481,FuelLeak,0.775,,,,None
2025-10-19_12:15:19,-179.9960876152822,0.0008563593537798342,0.0,39.87026690356878,-104.7109258904747,-1.086039296444995,10.15885812373558,149.8899583692069,FuelLeak,0.685,,,,None
2025-10-19_12:15:20,-26.5193107140417,-179.9843584989207,-0.002503994789776512,0.0,39.87026691614403,-104.7109259001794,-1.086949683382251,10.16275513588737,FuelLeak,0.595,,,,None
2025-10-19_12:15:21,149.8840063642267,-26.51036990322879,-179.9732436036133,0.001028590505970259,0.0,39.87026692419734,-104.7109259063685,-1.087406128462618,EngineFailure,0.63,,,,None
2025-10-19_12:15:22,10.1627953345951,149.8803618453856,-26.50427658557009,-179.966509658083,0.001126491162618789,0.0,39.87026694108741,-104.7109259192465,FuelLeak,0.805,,,,None
2025-10-19_12:15:23,-1.088069254637623,10.16287975900451,149.8733813678718,-26.49279132292041,-179.9538282033466,0.00131295578006431,0.0,39.87026695287231,FuelLeak,0.755,,,,None
2025-10-19_12:15:24,-104.7109259281352,-1.088311578746846,10.16293189328512,149.8689756199454,-26.48574836174758,-179.945984379141,0.001426259226079147,0.0,FuelLeak,0.605,,,,None
2025-10-19_12:15:26,39.87026696384804,-104.7109259363366,-1.088397018689243,10.16297825948029,149.8651548000927,-26.47980588260798,-179.9392825640176,0.00150235643960271,EngineFailure,0.48,,,,None
2025-10-19_12:15:27,0.0,39.87026697466894,-104.7109259443477,-1.088365542285976,10.16301419390622,149.8616074936056,-26.47444856829996,-179.9331386491713,FuelLeak,0.67,,,,None
2025-10-19_12:15:28,0.001578299604080603,0.0,39.87026698547314,-104.7109259522632,-1.088185461429283,10.15922245684461,149.8581621542432,-26.46847603626762,FuelLeak,0.775,,,,None
2025-10-19_12:15:29,-179.9272245813107,-0.001361148562760686,0.0,39.8702669963931,-104.7109259602137,-1.088017512830289,10.16307951549959,149.8549830719826,FuelLeak,0.685,,,,None
2025-10-19_12:15:30,-26.46492550115143,-179.9218237774598,0.001679237810367371,0.0,39.87026700540863,-104.7109259667151,-1.087780625555778,10.16310299811489,FuelLeak,0.595,,,,None
2025-10-19_12:15:31,149.8523767279777,-26.46137485455504,-179.9174092813793,0.001710451129797531,0.0,39.8702670155372,-104.7109259739641,-1.087460445621288,EngineFailure,0.63,,,,None
2025-10-19_12:15:33,10.16312362359878,149.8495157220664,-26.45763087016115,-179.9125712997461,0.001750608782812916,0.0,39.87026702600651,-104.7109259813805,FuelLeak,0.805,,,,None
2025-10-19_12:15:34,-1.087021464944475,10.15932245402184,149.8465544590149,-26.45301513041778,-179.9075588658588,-0.001114975917454787,39.87026703389785,-104.7109259869626,FuelLeak,0.78,,,,None
2025-10-19_12:15:35,-1.086756060466673,10.16315787357898,149.8444699108946,-26.45141855544355,-179.9040327070471,0.001803266806896155,0.0,39.87026704375602,FuelLeak,0.755,,,,None
2025-10-19_12:15:36,-104.7109259938717,-1.086323114512056,10.1631703078765,149.8418041681063,-26.44835130081165,-179.8994990428564,0.001829294919164492,0.0,FuelLeak,0.605,,,,None
2025-10-19_12:15:38,39.87026704375602,-104.7109259938717,-1.086323114512056,10.1631703078765,149.8418041681063,-26.44835130081165,-179.8994990428564,0.001829294919164492,EngineFailure,0.48,,,,None
2025-10-19_12:15:39,0.0,39.87026704375602,-104.7109259938717,-1.086323114512056,10.1631703078765,149.8418041681063,-26.44835130081165,-179.8994990428564,FuelLeak,0.67,,,,None
2025-10-19_12:15:40,0.001829294919164492,0.0,39.87026704375602,-104.7109259938717,-1.086323114512056,10.1631703078765,149.8418041681063,-26.44835130081165,FuelLeak,0.775,,,,None
2025-10-19_12:15:41,-179.8994990428564,0.001829294919164492,0.0,39.87026704375602,-104.7109259938717,-1.086323114512056,10.1631703078765,149.8418041681063,FuelLeak,0.685,,,,None
2025-10-19_12:15:42,-26.44835130081165,-179.8994990428564,0.001829294919164492,0.0,39.87026704375602,-104.7109259938717,-1.086323114512056,10.1631703078765,FuelLeak,0.595,,,,None
2025-10-19_12:15:43,149.8418041681063,-26.44835130081165,-179.8994990428564,0.001829294919164492,0.0,39.87026704375602,-104.7109259938717,-1.086323114512056,EngineFailure,0.63,,,,None
2025-10-19_12:15:45,10.1631703078765,149.8418041681063,-26.44835130081165,-179.8994990428564,0.001829294919164492,0.0,39.87026706553199,-104.7109260089508,FuelLeak,0.805,,,,None
2025-10-19_12:15:46,-1.085199488317099,10.15937066049024,149.8358981871371,-26.44122192172514,-179.8893530176798,-0.0009959350304406876,0.0,39.87026707462807,FuelLeak,0.755,,,,None
2025-10-19_12:15:47,-104.7109260151988,-1.084717008320096,10.15937641338169,149.8334573286917,-26.43887173191299,-179.8851097707683,-0.0009815126130100814,39.87026708537196,FuelLeak,0.605,,,,None
2025-10-19_12:15:48,-104.7109260225628,-1.084186853086974,10.16320214726896,149.830627888531,-26.43719780019655,-179.8801511916746,0.001920677769639931,0.0,FuelLeak,0.605,,,,None
2025-10-19_12:15:50,39.87026709595155,-104.7109260297538,-1.083588161648354,10.16320164746886,149.8277545200642,-26.43478013874051,-179.875055272045,0.001939953401701077,EngineFailure,0.48,,,,None
2025-10-19_12:15:51,0.0,39.87026710404373,-104.7109260352069,-1.083061479753654,10.15938099817273,149.825466729901,-26.43209342110729,-179.8709496114263,FuelLeak,0.67,,,,None
2025-10-19_12:15:52,-0.0009568038740248508,0.0,39.87026711438786,-104.7109260422093,-1.082456395324771,10.15937918912567,149.8226221399391,-26.42999889859348,FuelLeak,0.775,,,,None
2025-10-19_12:15:53,-179.8657772528784,-0.0009691183882940368,0.0,39.87026712499537,-104.7109260495502,-1.081845134262314,10.1593750300639,149.8197119343303,FuelLeak,0.685,,,,None
2025-10-19_12:15:54,-26.42799392968139,-179.8602252879263,-0.000996101835882991,0.0,39.87026713418814,-104.7109260560644,-1.081387246805307,10.16319296973256,FuelLeak,0.595,,,,None
2025-10-19_12:15:56,149.8172734293864,-26.42732357028019,-179.8553825913591,0.001972226814990788,0.0,39.87026714754904,-104.7109260657436,-1.080657682853628,EngineFailure,0.63,,,,None
2025-10-19_12:15:57,10.16317830371999,149.8135824615271,-26.42519262332579,-179.8476829343852,0.001976956201743618,0.0,39.87026715987565,-104.7109260749283,FuelLeak,0.805,,,,None
2025-10-19_12:15:58,-1.079954588859319,10.1593409823601,149.8100276320102,-26.42251026370397,-179.8398630897743,-0.001116761575713294,0.0,39.87026717069376,FuelLeak,0.755,,,,None
2025-10-19_12:15:59,-104.7109260832054,-1.079422835378635,10.15932305676997,149.8068932501734,-26.42119361864895,-179.8326727475979,-0.001173112052665973,0.0,FuelLeak,0.605,,,,None
2025-10-19_12:16:00,39.87026718043404,-104.7109260908223,-1.079033523676214,10.16312019296376,149.8040601032079,-26.42114753509493,-179.8259596634852,0.001993243344180259,EngineFailure,0.48,,,,None
2025-10-19_12:16:01,39.87026719014998,-104.7109260985944,-1.078556122244639,10.15927516884442,149.8009789657127,-26.41935646255681,-179.8184259487004,-0.001298455560527761,EngineFailure,0.48,,,,None
2025-10-19_12:16:02,0.0,39.87026720089539,-104.7109261073763,-1.078140710484935,10.15924136648798,149.7975242767269,-26.41867877053726,-179.809753607774,FuelLeak,0.67,,,,None
2025-10-19_12:16:04,-0.001378442451028821,0.0,39.87026720998554,-104.7109261149446,-1.077893826602309,10.16302777526519,149.7945639889866,-26.41931977757055,FuelLeak,0.775,,,,None
2025-10-19_12:16:05,-179.8021630528183,0.002004185667725559,0.0,39.87026722449512,-104.710926127381,-1.077435936819213,10.15914292354961,149.789339229689,FuelLeak,0.685,,,,None
2025-10-19_12:16:06,-26.41822855501151,-179.7884267872945,-0.001615626406554154,0.0,39.87026723153981,-104.7109261335117,-1.077356978271983,10.1629251516696,FuelLeak,0.595,,,,None
2025-10-19_12:16:07,149.7868231349466,-26.41946047174384,-179.7817063778707,0.001995965663314243,0.0,39.8702672472585,-104.7109261475986,-1.077133735425754,EngineFailure,0.63,,,,None
2025-10-19_12:16:08,10.15901208789799,149.7805733828642,-26.41958562206604,-179.7647175922468,-0.001961133187562557,0.0,39.87026725942944,-104.7109261587215,FuelLeak,0.805,,,,None
2025-10-19_12:16:09,-1.077252131372529,10.16274322160203,149.7756293230993,-26.42240392624414,-179.7510842598624,0.001918919720015081,0.0,39.87026726887117,FuelLeak,0.755,,,,None
2025-10-19_12:16:11,-104.7109261675837,-1.077382820099507,10.15884130128028,149.7714480881123,-26.42332370363336,-179.7394048286762,-0.002543566749169582,0.0,FuelLeak,0.605,,,,None
2025-10-19_12:16:12,39.87026728164771,-104.7109261797119,-1.077914752715668,10.15871550872068,149.7657831341805,-26.42725282916772,-179.7234262373821,-0.002953887529538387,EngineFailure,0.48,,,,None
2025-10-19_12:16:13,39.87026729525337,-104.7109261928176,-1.078979306566285,10.15855768169291,149.7597228627919,-26.43363133571091,-179.7060741513077,-0.003727554259813464,EngineFailure,0.48,,,,None
2025-10-19_12:16:14,39.87026730670006,-104.7109262038608,-1.080534380506886,10.16223115729546,149.7549652344343,-26.44289056370328,-179.6921782558754,0.0007252123300783876,EngineFailure,0.48,,,,None
2025-10-19_12:16:15,0.0,39.87026732208567,-104.7109262186648,-1.084158347530626,10.16205012545911,149.7495588575553,-26.46075635073063,-179.6755389425297,FuelLeak,0.67,,,,None
2025-10-19_12:16:16,-0.001158715168539965,0.0,39.87026733712193,-104.7109262324212,-1.091311454548218,10.16210142208592,149.7479135947277,-26.49380643303238,FuelLeak,0.775,,,,None
2025-10-19_12:16:17,-179.6677676185186,-0.005706142731953729,0.0,39.87026735456127,-104.7109262462652,-1.105299235785666,10.16241203313256,149.7561907714612,FuelLeak,0.685,,,,None
2025-10-19_12:16:19,-26.55533583458677,-179.6825869315843,-0.005662514451125361,0.0,39.87026736050642,-104.7109262509215,-1.108485811073256,10.16233184307014,FuelLeak,0.595,,,,None
2025-10-19_12:16:20,149.7591929491684,-26.56924094438508,-179.6880476387025,-0.001975599365949066,0.0,39.870267375012,-104.710926263443,-1.11129717041088,EngineFailure,0.63,,,,None
2025-10-19_12:16:21,10.15851257319357,149.7595680285544,-26.58196979314584,-179.6854604335259,-0.003404673248077703,0.0,39.87026738784969,-104.7109262749882,FuelLeak,0.805,,,,None
2025-10-19_12:16:22,-1.112138502352014,10.16246543131804,149.7568897387924,-26.58835635434728,-179.6763815771226,0.001814336582911158,0.0,39.87026739969925,FuelLeak,0.755,,,,None
2025-10-19_12:16:24,-104.7109262859406,-1.112341428611979,10.15871143132532,149.753298827982,-26.59025771848698,-179.6651771190855,-0.002205558638059568,0.0,FuelLeak,0.605,,,,None
2025-10-19_12:16:25,39.87026740982328,-104.7109262954143,-1.112331860064998,10.15877685338992,149.7496814834336,-26.59190835421049,-179.6543106300753,-0.001952635059294792,EngineFailure,0.48,,,,None
2025-10-19_12:16:26,39.87026742105297,-104.7109263060849,-1.112133940253024,10.15883884876234,149.7450490653618,-26.59300248642972,-179.6407198583211,-0.001738092001177217,EngineFailure,0.48,,,,None
2025-10-19_12:16:27,39.87026743261578,-104.7109263171923,-1.11183324172341,10.16274167753636,149.7397670261123,-26.59453524974656,-179.6255045563846,0.002208910300337207,EngineFailure,0.48,,,,None
2025-10-19_12:16:28,39.87026744132356,-104.7109263257123,-1.111466463683065,10.16277936689231,149.7352986060909,-26.59453167069039,-179.6127652834776,0.002229985696301709,EngineFailure,0.48,,,,None
2025-10-19_12:16:29,0.0,39.87026745207132,-104.7109263363632,-1.110924085462046,10.16281648143489,149.7293184327954,-26.5941678052688,-179.5958647832597,FuelLeak,0.67,,,,None
2025-10-19_12:16:30,0.002254298225821878,0.0,39.87026746070215,-104.7109263450863,-1.110355974757221,10.15899678247885,149.7240142691963,-26.59258355197053,FuelLeak,0.775,,,,None
2025-10-19_12:16:31,-179.5809572509091,-0.001279094161236248,0.0,39.87026747300155,-104.7109263575108,-1.10963855702167,10.16287593341498,149.7163532289986,FuelLeak,0.685,,,,None
2025-10-19_12:16:32,-26.59247442456744,-179.5595698106915,0.002277464962825177,0.0,39.87026748109487,-104.7109263658971,-1.109005560257498,10.15904848677062,FuelLeak,0.595,,,,None
2025-10-19_12:16:34,149.7107387770314,-26.59049336018472,-179.5439298058409,-0.001146892514488428,0.0,39.87026749131131,-104.7109263764194,-1.108330059879262,EngineFailure,0.63,,,,None
2025-10-19_12:16:35,10.16291276386773,149.7037760513122,-26.59008335376481,-179.5245987012254,0.002282862316328794,0.0,39.87026750226861,-104.7109263879719,FuelLeak,0.805,,,,None
2025-10-19_12:16:36,-1.107417939763792,10.15908278611357,149.6956324232101,-26.58725965113839,-179.5019781939593,-0.001063608296781208,0.0,39.87026751368004,FuelLeak,0.755,,,,None
2025-10-19_12:16:37,-104.7109263999518,-1.106587632708039,10.16294045038391,149.6873085048775,-26.58611844363495,-179.478863674024,0.002278832719465493,0.0,FuelLeak,0.605,,,,None
2025-10-19_12:16:38,39.8702675235433,-104.7109264105335,-1.10572231774926,10.15910316792959,149.6796164513828,-26.5829889179561,-179.457431429457,-0.001023322671660467,EngineFailure,0.48,,,,None
2025-10-19_12:16:39,39.87026753208675,-104.7109264196746,-1.105034059307408,10.15910271823165,149.6730937523902,-26.58098352222293,-179.4392036981046,-0.001024606017157549,EngineFailure,0.48,,,,None
2025-10-19_12:16:41,39.87026754022477,-104.7109264284147,-1.104384665965628,10.1591073609334,149.6668910962512,-26.57891483106048,-179.4217973695085,-0.001020834778862873,EngineFailure,0.48,,,,None
2025-10-19_12:16:42,39.87026754999616,-104.7109264389373,-1.10361899138977,10.15910105146331,149.6595247797344,-26.57621278335055,-179.4010001726787,-0.001039468575195726,EngineFailure,0.48,,,,None
2025-10-19_12:16:43,39.87026755822251,-104.710926447725,-1.103065827905559,10.16293794424451,149.6536297420372,-26.57479039165731,-179.3842477595328,0.002208495064704621,EngineFailure,0.48,,,,None
2025-10-19_12:16:44,0.0,39.87026756771803,-104.7109264580589,-1.102310268584994,10.15908311547989,149.6466082173377,-26.57063244795349,-179.3640767018025,FuelLeak,0.67,,,,None
2025-10-19_12:16:45,-0.001097137263819366,0.0,39.87026757644274,-104.7109264673777,-1.101790070410786,10.16291264111889,149.6407703178291,-26.56793589412282,FuelLeak,0.775,,,,None
2025-10-19_12:16:46,-179.3435890538526,0.00213920881247435,0.0,39.87026758656345,-104.7109264782613,-1.101170971653918,10.16289071114111,149.6341555648405,FuelLeak,0.685,,,,None
2025-10-19_12:16:47,-26.5646645298878,-179.3276009124071,0.002090246353951805,0.0,39.87026759548261,-104.7109264878985,-1.100632918239493,10.15902544037237,FuelLeak,0.595,,,,None
2025-10-19_12:16:49,149.6285724467029,-26.5597134215476,-179.3107752449687,-0.001277716122024376,0.0,39.87026760662872,-104.7109264996723,-1.100224632291,EngineFailure,0.63,,,,None
2025-10-19_12:16:50,10.16282677923662,149.6225768323261,-26.55546626442318,-179.2922337760963,0.001947622329177076,0.0,39.87026761721165,-104.7109265108237,FuelLeak,0.805,,,,None
2025-10-19_12:16:51,-1.09993099210644,10.16277813248068,149.6174906665497,-26.54964878313518,-179.275855223345,0.00183057880310869,0.0,39.8702676263504,FuelLeak,0.755,,,,None
2025-10-19_12:16:52,-104.710926520419,-1.099778993413134,10.15888549161854,149.6136802574902,-26.5426789902853,-179.262900341925,-0.001726216302682141,0.0,FuelLeak,0.605,,,,None
2025-10-19_12:16:53,39.87026763809225,-104.7109265324492,-1.099935519312648,10.15879758116678,149.6099831552868,-26.53390106625293,-179.2491995229934,-0.002038137806965741,EngineFailure,0.48,,,,None
2025-10-19_12:16:54,39.87026764741294,-104.7109265417983,-1.100357884730045,10.15870275338766,149.6080061820606,-26.52545753683451,-179.2405811064675,-0.002402579554528749,EngineFailure,0.48,,,,None
2025-10-19_12:16:56,39.87026765830252,-104.7109265524236,-1.101333008835953,10.15855068872613,149.6069516978058,-26.51313273473289,-179.2335303488808,-0.00305225688398051,EngineFailure,0.48,,,,None
2025-10-19_12:16:57,39.87026766936226,-104.7109265627588,-1.103136481156372,10.15831841831152,149.6075950290636,-26.49633816931432,-179.2305755817965,-0.004213248170992553,EngineFailure,0.48,,,,None
2025-10-19_12:16:58,39.87026768437304,-104.7109265756006,-1.107826283885011,10.1615925316881,149.6121413676048,-26.46311758714466,-179.2359553356353,-0.003558430761087428,EngineFailure,0.48,,,,None
2025-10-19_12:16:59,39.87026770047629,-104.7109265869774,-1.116921384990501,10.15736326183489,149.6238758912197,-26.40228428043423,-179.2592628555451,-0.01059669414284752,EngineFailure,0.48,,,,None
2025-10-19_12:17:00,0.0,39.87026771389851,-104.7109265957251,-1.122905772896976,10.15821392418411,149.6348376176942,-26.35972058456011,-179.2821466585276,FuelLeak,0.67,,,,None
2025-10-19_12:17:02,-0.003762103320000152,0.0,39.87026772732347,-104.7109266054541,-1.124302038725234,10.15854007750534,149.6365419326177,-26.34845546258659,FuelLeak,0.775,,,,None
2025-10-19_12:17:03,-179.285128306662,-0.002260612672102931,0.0,39.87026774065675,-104.7109266153753,-1.124658729428683,10.16242414807135,149.6371694703478,FuelLeak,0.685,,,,None
2025-10-19_12:17:04,-26.3410638413334,-179.2856902514085,0.001695996312560752,0.0,39.8702677523574,-104.7109266240607,-1.124626650483837,10.15867215926347,FuelLeak,0.595,,,,None
2025-10-19_12:17:05,149.6377937197427,-26.33385676950035,-179.2863391998159,-0.001738686573349514,0.0,39.87026776174228,-104.7109266309943,-1.124522066468326,EngineFailure,0.63,,,,None
2025-10-19_12:17:06,10.15870225900885,149.6385751350191,-26.32918039958913,-179.2874474372377,-0.001647621846283977,0.0,39.87026777533581,-104.7109266409648,FuelLeak,0.805,,,,None
2025-10-19_12:17:08,-1.124379499064326,10.16252072705162,149.6397731410094,-26.32594939087013,-179.2894774188797,0.001994526793166263,0.0,39.8702677870123,FuelLeak,0.755,,,,None
2025-10-19_12:17:09,-104.710926649427,-1.12406632396751,10.15873656198346,149.6414374261253,-26.32123943592521,-179.2925443623224,-0.001563291076146078,0.0,FuelLeak,0.605,,,,None
2025-10-19_12:17:10,39.87026779891174,-104.7109266579737,-1.123839582191909,10.16253679547153,149.6435217597915,-26.31930057574824,-179.2966196426041,0.002081784842891751,EngineFailure,0.48,,,,None
2025-10-19_12:17:11,39.87026781033331,-104.7109266660559,-1.123488258531001,10.15873638660713,149.6461460667305,-26.31575717978621,-179.3019016582668,-0.001569974232823579,EngineFailure,0.48,,,,None
2025-10-19_12:17:12,39.87026782117913,-104.7109266736654,-1.123282542900112,10.16252399818514,149.6489616132831,-26.31498569882544,-179.3077164024762,0.002123967830839017,EngineFailure,0.48,,,,None
2025-10-19_12:17:14,39.87026783754984,-104.7109266849333,-1.122849478298718,10.15870122537285,149.6543556509856,-26.31182764725006,-179.3190341217721,-0.001679739302742859,EngineFailure,0.48,,,,None
2025-10-19_12:17:15,39.87026785138986,-104.710926694382,-1.122667803847504,10.1624605436858,149.6595995435456,-26.31192417958669,-179.3302213074548,0.002140353625399347,EngineFailure,0.48,,,,None
2025-10-19_12:17:16,39.87026786277102,-104.7109267020648,-1.12253587746871,10.16242145480437,149.6646141004538,-26.3116341913237,-179.3410117210246,0.002127569500531963,EngineFailure,0.48,,,,None
2025-10-19_12:17:17,39.8702678742015,-104.7109267096802,-1.122424414242108,10.15858135473061,149.6703885166771,-26.31075244893524,-179.3535186753186,-0.002053873117916679,EngineFailure,0.48,,,,None
2025-10-19_12:17:18,0.0,39.87026788475066,-104.7109267166597,-1.122478354516399,10.15853352224679,149.6760957600397,-26.31151115516403,-179.3659664352611,FuelLeak,0.67,,,,None
2025-10-19_12:17:19,-0.002228030091174246,0.0,39.87026790227524,-104.7109267280822,-1.122850404216342,10.15842557403397,149.6866469498164,-26.31416669474944,FuelLeak,0.775,,,,None
2025-10-19_12:17:21,-179.3891285037757,-0.00264329967684963,0.0,39.87026791877891,-104.7109267386482,-1.123728523768659,10.16210187437595,149.6975342411731,FuelLeak,0.685,,,,None
2025-10-19_12:17:22,-26.31998662305848,-179.4131979096247,0.00161260224613328,0.0,39.87026793184491,-104.7109267468029,-1.124883156433865,10.16199264406482,FuelLeak,0.595,,,,None
2025-10-19_12:17:24,149.706977082553,-26.32586026665432,-179.4341654910491,0.001163110995183267,0.0,39.87026795074946,-104.7109267582197,-1.127978492026445,EngineFailure,0.63,,,,None
2025-10-19_12:17:25,10.16182948868928,149.7213652483981,-26.34025801279161,-179.46628064178,-0.0003562364793365761,0.0,39.87026796594116,-104.7109267670708,FuelLeak,0.805,,,,None
2025-10-19_12:17:26,-1.133055175353868,10.15796804983353,149.7333952604262,-26.36108104508654,-179.4932873957224,-0.01025238969374923,0.0,39.87026798284511,FuelLeak,0.755,,,,None
2025-10-19_12:17:27,-104.710926776879,-1.145627907284342,10.15837183971301,149.7458716948432,-26.41267803514383,-179.5216139051192,-0.01840709364170418,0.0,FuelLeak,0.605,,,,None
2025-10-19_12:17:29,39.87026799960238,-104.7109267871132,-1.159403451947616,10.15825810355078,149.7539430452459,-26.46722557307267,-179.5402167048811,-0.006406481780342247,EngineFailure,0.48,,,,None
2025-10-19_12:17:30,39.87026801383401,-104.7109267961256,-1.161407873074217,10.15828623154173,149.7592899288985,-26.47643889112038,-179.5524490647038,-0.002958014648229835,EngineFailure,0.48,,,,None
2025-10-19_12:17:31,39.87026802936099,-104.7109268058474,-1.16199666794233,10.16224561558667,149.7653155747963,-26.48153612414536,-179.5662465600989,0.001955713240839694,EngineFailure,0.48,,,,None
2025-10-19_12:17:32,39.87026804159936,-104.7109268134616,-1.161962897693357,10.15852451338595,149.7707265693462,-26.48227257349407,-179.5784251430233,-0.001867335720045449,EngineFailure,0.48,,,,None
2025-10-19_12:17:33,39.8702680518392,-104.7109268199315,-1.161870971705455,10.16241973554435,149.7754794952714,-26.48420547870693,-179.5890006832563,0.002145716128798162,EngineFailure,0.48,,,,None
2025-10-19_12:17:34,39.87026806392109,-104.7109268275526,-1.161525422208292,10.16249929393563,149.781826286969,-26.48472969816562,-179.6029537538347,0.002188238565276771,EngineFailure,0.48,,,,None
2025-10-19_12:17:35,39.87026807656029,-104.7109268355117,-1.160944069545775,10.15875166042769,149.7894187593855,-26.48383467105569,-179.619474276931,-0.001276403362392564,EngineFailure,0.48,,,,None
2025-10-19_12:17:36,39.87026808717594,-104.71092684227,-1.160476257599653,10.16262822548314,149.7961498385098,-26.48458862284111,-179.634043225605,0.002230553523793023,EngineFailure,0.48,,,,None
2025-10-19_12:17:37,0.0,39.87026809795694,-104.7109268490589,-1.159784523492951,10.15885777073964,149.8040418990582,-26.483194080969,-179.6510279817498,FuelLeak,0.67,,,,None
2025-10-19_12:17:39,-0.001053327576407657,0.0,39.87026810784588,-104.7109268553449,-1.159212546285378,10.16271913938496,149.8115141589543,-26.48356042292357,FuelLeak,0.775,,,,None
2025-10-19_12:17:40,-179.6670818880081,0.002248314469755748,0.0,39.87026811203921,-104.710926857991,-1.158923405388315,10.16273629647582,149.8149511505747,FuelLeak,0.685,,,,None
2025-10-19_12:17:41,-26.48327158686427,-179.6744511146242,0.002252709730331526,0.0,39.87026812923782,-104.71092686876,-1.157570745897268,10.15897510924616,FuelLeak,0.595,,,,None
2025-10-19_12:17:42,149.8305246157429,-26.48094957191193,-179.7077943133201,-0.0008124361067654681,0.0,39.87026814452757,-104.710926878284,-1.156300371728164,EngineFailure,0.63,,,,None
2025-10-19_12:17:43,10.15902861759373,149.8458226479124,-26.47944247056594,-179.7405458416748,-0.0007167711608347038,0.0,39.87026815292757,-104.710926883475,FuelLeak,0.805,,,,None
2025-10-19_12:17:44,-1.155555050962871,10.15905293440155,149.8548889439824,-26.47852233090524,-179.7599673638663,-0.000668619257859672,0.0,39.87026816342259,FuelLeak,0.755,,,,None
2025-10-19_12:17:45,-104.710926889952,-1.1546489655696,10.16290213648039,149.8665753416587,-26.47817314977071,-179.785036154597,0.002294961737693057,0.0,FuelLeak,0.605,,,,None
2025-10-19_12:17:47,39.87026817289132,-104.7109268956669,-1.153658128853583,10.15910484335252,149.8783119966284,-26.47611196374852,-179.8102242642689,-0.0005602323640126728,EngineFailure,0.48,,,,None
2025-10-19_12:17:48,39.87026818317743,-104.710926901861,-1.152615436332445,10.15912825599383,149.8913630244623,-26.4747611027552,-179.8382882057637,-0.000513311888639234,EngineFailure,0.48,,,,None
2025-10-19_12:17:49,39.87026819193753,-104.7109269071319,-1.151765945652939,10.16296919363947,149.9026197744075,-26.47442574782302,-179.8625431937787,0.002328309249311231,EngineFailure,0.48,,,,None
2025-10-19_12:17:50,39.87026820142819,-104.7109269127428,-1.150736574187844,10.16298558358759,149.9156427182905,-26.47306962908912,-179.890638149738,0.002343481688549756,EngineFailure,0.48,,,,None
2025-10-19_12:17:51,39.87026820992416,-104.7109269177185,-1.14978836903882,10.16300272529146,149.9276891439635,-26.47181507717179,-179.9166721404428,0.002352491232861642,EngineFailure,0.48,,,,None
2025-10-19_12:17:52,39.87026821934586,-104.7109269231885,-1.14870877025951,10.16302036947611,149.9414116102745,-26.47038367753607,-179.9463803002783,0.002363011899061281,EngineFailure,0.48,,,,None
2025-10-19_12:17:53,39.87026822759213,-104.710926927885,-1.147670349037392,10.15921383956872,149.9540742036886,-26.46824266987242,-179.9738330279922,-0.000344671995279796,EngineFailure,0.48,,,,None
2025-10-19_12:17:54,39.8702682375021,-104.7109269335447,-1.146482860405231,10.15922973098947,149.9691129665525,-26.46665717661161,179.9934901402373,-0.0003145026752671624,FuelLeak,0.515,,,,None
2025-10-19_12:17:55,39.87026824535786,-104.7109269380017,-1.145525442650126,10.15924281055113,149.9811876309334,-26.46537014123772,179.9672075826753,-0.000294791771338379,FuelLeak,0.515,,,,None
2025-10-19_12:17:57,0.0,39.87026825676399,-104.7109269433649,-1.144929059015898,10.15782603269121,150.0073255138755,-26.46297925036256,179.9073351125492,FuelLeak,0.635,,,,None
2025-10-19_12:17:58,-0.01387675757913261,0.0,39.87026827209475,-104.7109269433423,-1.144953898156966,10.16052257184832,150.0860824197593,-26.46138352370333,FuelLeak,0.775,,,,None
2025-10-19_12:17:59,179.7250299200477,0.01400455234574308,0.0,39.87026828482723,-104.7109269458358,-1.143372337975483,10.15930683467775,150.1205286521105,FuelLeak,0.685,,,,None
2025-10-19_12:18:00,-26.45770547876133,179.644213309824,-0.0002047182652657985,0.0,39.87026829494367,-104.7109269511313,-1.142059588144674,10.15929031296577,FuelLeak,0.595,,,,None
2025-10-19_12:18:01,150.1197155956961,-26.45585685740534,179.6419637353693,-0.0002080162277273128,0.0,39.87026830468108,-104.7109269563342,-1.140864538661583,EngineFailure,0.715,,,,None
2025-10-19_12:18:02,10.16315962677037,150.1188902691227,-26.45487702435668,179.6399938564344,0.00230614439572873,0.0,39.87026831429579,-104.7109269613529,FuelLeak,0.755,,,,None
2025-10-19_12:18:03,-1.139539749629672,10.1593083893069,150.1179314699407,-26.45223219071097,179.6381428560609,-0.0002040737490006457,0.0,39.87026832234593,FuelLeak,0.655,,,,None
2025-10-19_12:18:05,-104.7109269656296,-1.138490191855744,10.15931391261964,150.1170934205948,-26.45070003856093,179.6367619148389,-0.0002007173785385074,0.0,FuelLeak,0.73,,,,None
2025-10-19_12:18:06,39.87026833185455,-104.7109269707189,-1.1372481045743,10.1593481540696,150.1160434472314,-26.44886392406228,179.6352576951716,-0.0001977735364913635,FuelLeak,0.515,,,,None
2025-10-19_12:18:07,39.87026834197449,-104.7109269761877,-1.136001783216386,10.16318840640179,150.1148807100963,-26.44772593866089,179.633878907859,0.00229558797917594,FuelLeak,0.515,,,,None
2025-10-19_12:18:08,39.87026835001804,-104.7109269805146,-1.134954921758208,10.16318925885685,150.1138597042265,-26.44614155160074,179.6329053499809,0.002297283746484347,FuelLeak,0.515,,,,None
2025-10-19_12:18:09,39.87026835967747,-104.7109269857324,-1.133699801896216,10.16319473591897,150.1125674197959,-26.44422256685416,179.6318844844438,0.00229620064158893,FuelLeak,0.515,,,,None
2025-10-19_12:18:10,39.87026836699784,-104.710926989657,-1.132677351517563,10.15936924499145,150.1114949511635,-26.44191357620798,179.6312011202162,-0.0002003816440368364,FuelLeak,0.515,,,,None
2025-10-19_12:18:12,39.8702683771436,-104.7109269952328,-1.131438870180436,10.16319875301086,150.1100246674722,-26.44070026679965,179.6305035473042,0.002296431922574479,FuelLeak,0.515,,,,None
2025-10-19_12:18:13,39.87026838535424,-104.7109269997429,-1.130380241711832,10.16314331444058,150.108731848672,-26.43902043385077,179.6300357134037,0.002294134730750938,FuelLeak,0.515,,,,None
2025-10-19_12:18:14,39.87026839507041,-104.7109270050906,-1.12913455546536,10.16314225912563,150.1071304828583,-26.4370185169916,179.6296933279174,0.002297047292206377,FuelLeak,0.515,,,,None
2025-10-19_12:18:15,0.0,39.87026840305951,-104.7109270094965,-1.128115932040515,10.16320030451138,150.1057618971939,-26.43536086412409,179.6295742494351,FuelLeak,0.635,,,,None
2025-10-19_12:18:16,0.002297211603732297,0.0,39.87026841277544,-104.7109270148362,-1.126811710849492,10.15933865426102,150.1039518043212,-26.43247399247628,FuelLeak,0.775,,,,None
2025-10-19_12:18:17,179.6295962665625,-0.0002429592063079695,0.0,39.87026842263015,-104.710927020412,-1.125641712210272,10.16319668115659,150.1021299613583,FuelLeak,0.685,,,,None
2025-10-19_12:18:19,-26.4312406961189,179.62982506836,0.002302737942813583,0.0,39.87026843274606,-104.7109270261068,-1.124378231210398,10.16319307985932,FuelLeak,0.595,,,,None
2025-10-19_12:18:20,150.1000957109205,-26.42908532665917,179.6303181843886,0.002303086157748902,0.0,39.87026844050857,-104.7109270304637,-1.123344395353501,EngineFailure,0.715,,,,None
2025-10-19_12:18:21,10.15936010473189,150.098398841396,-26.42654613602507,179.6308855861548,-0.0002701707874143825,0.0,39.87026845091267,-104.7109270364273,FuelLeak,0.755,,,,None
2025-10-19_12:18:22,-1.122139502805752,10.16318452196947,150.0961719341389,-26.4251616018047,179.6318323669921,0.002306354424634213,0.0,39.8702684592301,FuelLeak,0.655,,,,None
2025-10-19_12:18:23,-104.7109270411951,-1.121129333575449,10.16317733102778,150.0942542328156,-26.42334556539371,179.6328091040121,0.002313771648966271,0.0,FuelLeak,0.73,,,,None
2025-10-19_12:18:24,39.87026846911893,-104.710927046918,-1.119942256718828,10.16310620415066,150.0918540246989,-26.42116565300238,179.6342039109868,0.002317151300502333,FuelLeak,0.515,,,,None
2025-10-19_12:18:26,0.0,39.87026847888352,-104.7109270525515,-1.118712922848057,10.15932959296638,150.0893427317906,-26.41810103828454,179.6358898493524,FuelLeak,0.635,,,,None
2025-10-19_12:18:27,-0.0003402811562742644,0.0,39.87026848909373,-104.7109270586022,-1.117591974356733,10.16308508649726,150.0867570083773,-26.41669783950807,FuelLeak,0.775,,,,None
2025-10-19_12:18:28,179.6377501949211,0.00232452305261311,0.0,39.87026849772381,-104.7109270636571,-1.116528693056812,10.15927552866362,150.0843885520835,FuelLeak,0.685,,,,None
2025-10-19_12:18:29,-26.41383699931957,179.6396263834773,-0.0003867475453024983,0.0,39.87026850774032,-104.7109270696691,-1.115395261019015,10.15926064794174,FuelLeak,0.595,,,,None
2025-10-19_12:18:30,150.0815899829913,-26.41152710591155,179.6419875649224,-0.0004152130237622259,0.0,39.87026851859552,-104.7109270763259,-1.114263082919314,EngineFailure,0.715,,,,None
2025-10-19_12:18:31,10.16303709378995,150.0784821566324,-26.40991422739726,179.6447709022278,0.002340315661678247,0.0,39.87026852923502,-104.7109270828448,FuelLeak,0.755,,,,None
2025-10-19_12:18:32,-1.113112805305723,10.16308863754871,150.0752296653845,-26.40740786006857,179.6479495778468,0.00234444107078292,0.0,39.87026853982666,FuelLeak,0.655,,,,None
2025-10-19_12:18:34,-104.7109270894289,-1.111997833376261,10.16306985826469,150.0718014362417,-26.40487772452396,179.6514698488767,0.002347547728431413,0.0,FuelLeak,0.73,,,,None
2025-10-19_12:18:35,39.87026855019794,-104.7109270959093,-1.110867744397791,10.15917420331441,150.0681540458793,-26.40140013432562,179.655421998238,-0.0005671276181616752,FuelLeak,0.515,,,,None
2025-10-19_12:18:36,0.0,39.87026855955094,-104.7109271019088,-1.11001297508114,10.1630259700459,150.0648787810502,-26.40006822651034,179.6591792462482,FuelLeak,0.635,,,,None
2025-10-19_12:18:37,0.00235939755467725,0.0,39.87026856877493,-104.7109271078332,-1.109056860118861,10.15916564698819,150.0612967768845,-26.39678251441167,FuelLeak,0.775,,,,None
2025-10-19_12:18:38,179.6634312624341,-0.0006484998551945904,0.0,39.87026858316075,-104.7109271172563,-1.10781267208435,10.16295170825054,150.0557287823388,FuelLeak,0.685,,,,None
2025-10-19_12:18:39,-26.3941403133779,179.6704499369736,0.002365226895915521,0.0,39.87026859237102,-104.7109271233648,-1.106941506190079,10.15908949235972,FuelLeak,0.595,,,,None
2025-10-19_12:18:40,150.0517938010569,-26.39074279500866,179.6756252497655,-0.0007825256091670688,0.0,39.87026860417558,-104.7109271313454,-1.106043323630854,EngineFailure,0.715,,,,None
2025-10-19_12:18:42,10.16279002225151,150.0467657503958,-26.38868844699769,179.6825284954232,0.002367353853656803,0.0,39.87026861584996,-104.7109271393388,FuelLeak,0.755,,,,None
2025-10-19_12:18:43,-1.105152413446988,10.16273996973086,150.0414132153798,-26.38557603217703,179.6902358514472,0.002363937245242251,0.0,39.87026862707175,FuelLeak,0.655,,,,None
2025-10-19_12:18:44,-104.7109271471299,-1.104295299103459,10.15893660879231,150.0358444911766,-26.38141905508197,179.6986283306282,-0.001049421008837991,0.0,FuelLeak,0.73,,,,None
2025-10-19_12:18:45,39.87026863771056,-104.7109271546245,-1.103621932048368,10.15883963217375,150.0303763232178,-26.37842899652433,179.7071549663779,-0.001153215557893186,FuelLeak,0.515,,,,None
2025-10-19_12:18:46,0.0,39.87026864994048,-104.7109271634464,-1.102941155359484,10.158807821165,150.0236788975768,-26.37488447098713,179.7179774181811,FuelLeak,0.635,,,,None
2025-10-19_12:18:47,-0.00128780327201061,0.0,39.87026866288131,-104.7109271729026,-1.102346704976729,10.15868308624053,150.0160822557902,-26.37100598736478,FuelLeak,0.775,,,,None
2025-10-19_12:18:48,179.7307208067582,-0.001459409218065821,0.0,39.8702686758137,-104.7109271826045,-1.101896885529456,10.15862005450395,150.0078670684429,FuelLeak,0.685,,,,None
2025-10-19_12:18:50,-26.36694926492453,179.7449931382797,-0.00166314343252646,0.0,39.87026868726991,-104.7109271913288,-1.101706487019321,10.16234923057538,FuelLeak,0.595,,,,None
2025-10-19_12:18:51,150.0002253734564,-26.36447468358462,179.7587120160065,0.002185413251381563,0.0,39.87026870143401,-104.7109272023962,-1.101595177336308,EngineFailure,0.715,,,,None
2025-10-19_12:18:52,10.16213444417649,149.989654862104,-26.35959236608984,179.7781435605621,0.002082947574315491,0.0,39.87026871599097,-104.7109272140594,FuelLeak,0.755,,,,None
2025-10-19_12:18:53,-1.10176070413822,10.16197331908271,149.9776925077097,-26.35415941168274,179.8008962132972,0.001931512013770342,0.0,39.87026872823782,FuelLeak,0.655,,,,None
2025-10-19_12:18:54,-104.7109272241606,-1.102099239493753,10.15806594810515,149.96635015508,-26.3476737264487,179.823083252545,-0.00296776239569222,0.0,FuelLeak,0.73,,,,None
2025-10-19_12:18:55,39.8702687440959,-104.7109272376381,-1.103037143275813,10.15783733651723,149.9503241815751,-26.34032222829972,179.8551515271035,-0.003599246450384199,FuelLeak,0.515,,,,None
2025-10-19_12:18:57,0.0,39.87026876123773,-104.7109272527712,-1.104722273158265,10.16130852889397,149.9309774553278,-26.33278113479649,179.8947852801358,FuelLeak,0.635,,,,None
2025-10-19_12:18:58,0.0009749102600368033,0.0,39.87026877550387,-104.7109272660254,-1.106602196150592,10.15730251431806,149.9086995317998,-26.32190409883214,FuelLeak,0.775,,,,None
2025-10-19_12:18:59,179.9418410307282,0.0003830639398306537,0.0,39.87026879432652,-104.7109272843885,-1.109988747803425,10.16076807689689,149.8863603612461,FuelLeak,0.685,,,,None
2025-10-19_12:19:00,-26.31010836109257,179.9908228187421,-0.0001371229219718298,0.0,39.87026881296847,-104.7109273035611,-1.113912410672939,10.15684084863595,FuelLeak,0.595,,,,None
2025-10-19_12:19:01,149.8577468044995,-26.29422279830529,-179.9450653470903,-0.006871239102212267,0.0,39.87026883221436,-104.7109273237578,-1.11818187429338,EngineFailure,0.63,,,,None
2025-10-19_12:19:02,10.15687161000612,149.8267391474403,-26.28503565576939,-179.8753190018709,-0.006964071412009958,0.0,39.87026885116234,-104.7109273439201,FuelLeak,0.805,,,,None
2025-10-19_12:19:03,-1.122405184153431,10.1569989332988,149.7945612048223,-26.28380605908501,-179.8028398112427,-0.006892661494908999,0.0,39.87026887018234,FuelLeak,0.755,,,,None
2025-10-19_12:19:05,-104.7109273640311,-1.126553227487481,10.16098204589689,149.7623764316565,-26.28910593119279,-179.7300278415942,4.235571204199199,0.0,FuelLeak,0.605,,,,None
2025-10-19_12:19:06,39.87026888444802,-104.7109273788127,-1.129077963109742,10.15734665680585,149.7399228486387,-26.2900030130345,-179.6790921328509,-0.00529296758765112,EngineFailure,0.48,,,,None
2025-10-19_12:19:07,0.0,39.8702689017386,-104.7109273956882,-1.131254359861833,10.16137063476703,149.7191467645169,-26.2923257200005,-179.6318805931247,FuelLeak,0.67,,,,None
2025-10-19_12:19:08,0.001419302251255979,0.0,39.87026891891887,-104.7109274077392,-1.133462393540552,10.16161578741284,149.7270339699721,-26.29191061485839,FuelLeak,0.775,,,,None
2025-10-19_12:19:09,-179.6501933975116,0.002003449153173863,0.0,39.87026893132302,-104.7109274198175,-1.133660136546483,10.16173832290346,149.7125712503795,FuelLeak,0.685,,,,None
2025-10-19_12:19:10,-26.28989479981761,-179.6176486678544,0.002285450442987305,0.0,39.87026894568188,-104.7109274335326,-1.133569196959071,10.16187781221666,FuelLeak,0.595,,,,None
2025-10-19_12:19:12,149.6976341223895,-26.2870570646592,-179.5840112078824,0.002406390450528041,0.0,39.87026895934342,-104.7109274463571,-1.133250103460917,EngineFailure,0.63,,,,None
2025-10-19_12:19:13,10.16197690226438,149.6848734718166,-26.28407486697714,-179.5551768079512,0.002469717928643337,0.0,39.87026897275096,-104.7109274588181,FuelLeak,0.805,,,,None
2025-10-19_12:19:14,-1.13268760407095,10.15830773301239,149.6732786651199,-26.27971387659587,-179.5287761770694,-0.001666210501344373,0.0,39.8702689837944,FuelLeak,0.755,,,,None
2025-10-19_12:19:15,-104.710927468905,-1.132256979879222,10.16218232682627,149.6648069533806,-26.27832783734771,-179.5094078437355,0.002516912004727725,0.0,FuelLeak,0.605,,,,None
2025-10-19_12:19:16,39.8702689958154,-104.7109274798262,-1.131617431928749,10.16226262930481,149.6559496955353,-26.27537905572835,-179.4890762327875,0.002517992773453204,EngineFailure,0.48,,,,None
2025-10-19_12:19:17,0.0,39.87026900823081,-104.7109274910103,-1.130875777594757,10.16233948894504,149.647375420668,-26.27227409736421,-179.4692950980238,FuelLeak,0.67,,,,None
2025-10-19_12:19:19,0.002506576163929531,0.0,39.87026902119344,-104.710927502583,-1.130027054632643,10.16239642941198,149.6389649949464,-26.26898276531735,FuelLeak,0.775,,,,None
2025-10-19_12:19:20,-179.4498220373424,0.002483950752090147,0.0,39.87026903092631,-104.7109275112052,-1.129348276334657,10.16246460002613,149.6330183235502,FuelLeak,0.685,,,,None
2025-10-19_12:19:21,-26.26649243621254,-179.4359073226312,0.002475148135824081,0.0,39.87026904245219,-104.7109275212881,-1.128504790134109,10.16251238970038,FuelLeak,0.595,,,,None
2025-10-19_12:19:22,149.6263009053894,-26.26353737797393,-179.4201483333888,0.002448982606284578,0.0,39.87026905360103,-104.7109275309754,-1.12765388964681,EngineFailure,0.63,,,,None
2025-10-19_12:19:24,10.16256302171054,149.6201365885091,-26.2606632053183,-179.4055790564801,0.002428758088632996,0.0,39.87026906363915,-104.7109275396432,FuelLeak,0.805,,,,None
2025-10-19_12:19:25,-1.126863883089474,10.16260824930012,149.6148485262324,-26.25805955518266,-179.3930212952934,0.002406269152683423,0.0,39.87026907442003,FuelLeak,0.755,,,,None
2025-10-19_12:19:26,-104.7109275489222,-1.125921305540034,10.15888089108682,149.6093098300973,-26.25419764865231,-179.3797773700851,-0.0009235678919739523,0.0,FuelLeak,0.605,,,,None
2025-10-19_12:19:27,39.87026908506766,-104.7109275580105,-1.125045193686137,10.15892426815297,149.6042227240314,-26.25141502097069,-179.3675787209987,-0.0008899638698822297,EngineFailure,0.48,,,,None
2025-10-19_12:19:28,0.0,39.87026909635485,-104.7109275675817,-1.124172027074512,10.16275686536768,149.5992131305156,-26.24946285050614,-179.3554935610968,FuelLeak,0.67,,,,None
2025-10-19_12:19:29,0.00232570930402248,0.0,39.87026910638463,-104.7109275760787,-1.123252930038328,10.15899178513339,149.5947647243282,-26.24578272464415,FuelLeak,0.775,,,,None
2025-10-19_12:19:31,-179.3447247828011,-0.0008375550725169766,0.0,39.87026911551645,-104.7109275837265,-1.122545976520174,10.16282249831003,149.5911228674167,FuelLeak,0.685,,,,None
2025-10-19_12:19:32,-26.24434447655288,-179.3358434526409,0.002277697440990478,0.0,39.87026912610646,-104.7109275925722,-1.121640621621358,10.1628342405667,FuelLeak,0.595,,,,None
2025-10-19_12:19:33,149.586974951185,-26.24148209167877,-179.3257309435784,0.002255721126122332,0.0,39.87026913639556,-104.7109276011506,-1.120691376564583,EngineFailure,0.63,,,,None
2025-10-19_12:19:34,10.15909721462438,149.5831182569448,-26.23770445565258,-179.3161939253951,-0.000793661928035384,0.0,39.87026914682018,-104.7109276097809,FuelLeak,0.805,,,,None
2025-10-19_12:19:35,-1.119870293746809,10.16291343174468,149.5796312522779,-26.23581340096815,-179.307527835546,0.00219873779542248,39.87026915697039,-104.7109276181444,FuelLeak,0.78,,,,None
2025-10-19_12:19:36,-1.119009233802226,10.16294078911336,149.5763833150351,-26.23299487868419,-179.2994071733872,0.002172652784641895,0.0,39.87026916691057,FuelLeak,0.755,,,,None
2025-10-19_12:19:38,-104.7109276262788,-1.118174346033861,10.1629358302498,149.5734281930326,-26.23020929332426,-179.2920066064626,0.00215329731006501,0.0,FuelLeak,0.605,,,,None
2025-10-19_12:19:39,39.87026917492418,-104.710927632829,-1.11744189499994,10.15919135149708,149.5711920202158,-26.22698367696709,-179.2862778932745,-0.000776287638703816,EngineFailure,0.48,,,,None
2025-10-19_12:19:40,0.0,39.87026918501314,-104.7109276410475,-1.116616592064124,10.15919951579902,149.5686961029126,-26.22409474420781,-179.2798539216348,FuelLeak,0.67,,,,None
2025-10-19_12:19:41,-0.0007777317504644608,0.0,39.87026919511581,-104.7109276491711,-1.115871459738546,10.16299074301547,149.5665262842691,-26.22210294240895,FuelLeak,0.775,,,,None
2025-10-19_12:19:42,-179.2742245340686,0.002074993813905113,0.0,39.8702692052499,-104.710927657308,-1.11507927565614,10.16300609002749,149.5646201292679,FuelLeak,0.685,,,,None
2025-10-19_12:19:43,-26.2191098103145,-179.269139123908,0.002048491062261986,0.0,39.87026921465774,-104.7109276648348,-1.114364023813318,10.16305196907796,FuelLeak,0.595,,,,None
2025-10-19_12:19:44,149.5631815733048,-26.2162827541215,-179.2651203282515,0.002014433626014529,0.0,39.87026922290815,-104.7109276713703,-1.113696484429299,EngineFailure,0.63,,,,None
2025-10-19_12:19:46,10.15927410315792,149.5621197808747,-26.21283335572695,-179.2621027254129,-0.0008240135935802268,0.0,39.87026923254254,-104.7109276790008,FuelLeak,0.805,,,,None
2025-10-19_12:19:47,-1.113014770194719,10.15926883724386,149.5612612802807,-26.20983694518106,-179.2594556971231,-0.0008417431604812193,39.8702692421811,-104.7109276865188,FuelLeak,0.78,,,,None
2025-10-19_12:19:48,-1.112367442710086,10.15929479613796,149.5607945908642,-26.20677891255841,-179.2577130275383,-0.0008704462051528673,0.0,39.8702692518025,FuelLeak,0.755,,,,None
2025-10-19_12:19:49,-104.7109276940316,-1.111757182006245,10.15928109060602,149.5607437532239,-26.2036516076488,-179.2569318028839,-0.0008968495017943469,0.0,FuelLeak,0.605,,,,None
2025-10-19_12:19:50,39.87026926036187,-104.7109277006011,-1.111252196264016,10.15930555241036,149.5610879811449,-26.20080048060496,-179.2571397215006,-0.0009304818941539652,EngineFailure,0.48,,,,None
2025-10-19_12:19:51,0.0,39.87026926987464,-104.7109277078799,-1.110733766165718,10.15931082511922,149.5619278301415,-26.19754633549267,-179.2584316827222,FuelLeak,0.67,,,,None
2025-10-19_12:19:52,-0.0009655631930143207,0.0,39.87026927714318,-104.7109277134227,-1.110428054210037,10.16309779436307,149.5629045239423,-26.19592512770189,FuelLeak,0.775,,,,None
2025-10-19_12:19:54,-179.2601893100254,0.001782535537193223,0.0,39.87026929158407,-104.7109277242658,-1.109759782005475,10.15928631739988,149.5659154147882,FuelLeak,0.685,,,,None
2025-10-19_12:19:55,-26.18969937489568,-179.2661933504854,-0.001079995440710931,0.0,39.8702693028028,-104.7109277325318,-1.109443019575637,10.16304334355351,FuelLeak,0.595,,,,None
2025-10-19_12:19:56,149.5691277585569,-26.18632157156611,-179.2729548216304,0.001647468845696665,0.0,39.87026931274264,-104.7109277397674,-1.109156770413581,EngineFailure,0.63,,,,None
2025-10-19_12:19:57,10.15929345596337,149.5729731297602,-26.18133270114303,-179.2811486509611,-0.001236172406646576,0.0,39.87026932310016,-104.7109277472227,FuelLeak,0.805,,,,None
2025-10-19_12:19:58,-1.109013265463936,10.15928039874939,149.5776835032648,-26.17689116482182,-179.2914030324939,-0.001322559085012385,39.8702693331233,-104.710927754384,FuelLeak,0.78,,,,None
2025-10-19_12:19:59,-1.108981181866138,10.15923651041769,149.5830639216142,-26.17231743780977,-179.3032519416676,-0.001419043916095667,0.0,39.87026934202758,FuelLeak,0.755,,,,None
2025-10-19_12:20:00,-104.7109277606414,-1.109090369859537,10.16302813700687,149.5883281810173,-26.16805419586834,-179.317588745084,0.001332072360394063,0.0,FuelLeak,0.605,,,,None
2025-10-19_12:20:02,39.87026935151601,-104.7109277672314,-1.109228656660114,10.15919051654225,149.5948534254429,-26.16305501609817,-179.3295106731646,-0.001626361736733892,EngineFailure,0.48,,,,None
2025-10-19_12:20:03,0.0,39.87026936088259,-104.7109277736927,-1.109517306684372,10.1591607007944,149.6016379708047,-26.15779006880327,-179.3447409950604,FuelLeak,0.67,,,,None
2025-10-19_12:20:04,-0.001746840990608981,0.0,39.87026937323536,-104.710927782131,-1.110076130339267,10.15913721394391,149.6110308503901,-26.15011953155515,FuelLeak,0.775,,,,None
2025-10-19_12:20:05,-179.365926231191,-0.001934006677946771,0.0,39.87026938397257,-104.7109277895693,-1.110738379455287,10.15905422270193,149.61931738721,FuelLeak,0.685,,,,None
2025-10-19_12:20:06,-26.14258725713042,-179.384695665328,-0.002096950710413743,0.0,39.87026939508239,-104.7109277972773,-1.111616224490273,10.15898439679644,FuelLeak,0.595,,,,None
2025-10-19_12:20:07,149.6276106040252,-26.13372151314416,-179.4035461262658,-0.002317280792826305,0.0,39.87026940519609,-104.7109278043792,-1.112643669684547,EngineFailure,0.63,,,,None
2025-10-19_12:20:08,10.1627182938693,149.6345318881159,-26.12558956460387,-179.419274690682,0.0004975564427413073,0.0,39.87026941615407,-104.7109278121761,FuelLeak,0.805,,,,None
2025-10-19_12:20:10,-1.114035945709908,10.15879910089446,149.641679560544,-26.11230043602792,-179.4356649916124,-0.00299689225644726,0.0,39.8702694285488,FuelLeak,0.755,,,,None
2025-10-19_12:20:11,-104.7109278211215,-1.116250346788042,10.16243383483985,149.6485716349993,-26.09624723394307,-179.4513883664424,-0.0005999292391982257,39.87026943891109,FuelLeak,0.605,,,,None
2025-10-19_12:20:12,-104.7109278286193,-1.119021505663046,10.15843005880722,149.6538880120809,-26.07482860943282,-179.463613938962,-0.005159079557510311,0.0,FuelLeak,0.605,,,,None
2025-10-19_12:20:13,39.87026945288907,-104.7109278388384,-1.125333450569404,10.15792074096774,149.6601604260732,-26.03272141970456,-179.4778583286183,-0.008805600834653983,EngineFailure,0.48,,,,None
2025-10-19_12:20:14,0.0,39.87026946529405,-104.7109278480888,-1.133791090519172,10.16152099303253,149.6636142120102,-25.97976140912899,-179.4856155932856,FuelLeak,0.67,,,,None
2025-10-19_12:20:15,-0.006425332955655614,0.0,39.87026947714815,-104.7109278577718,-1.138893704075828,10.16245577923578,149.6620321999411,-25.94294695214644,FuelLeak,0.775,,,,None
2025-10-19_12:20:16,-179.4818183836747,1.134119176759925,0.0,39.87026948829391,-104.7109278673428,-1.139579203390056,10.16259325983551,149.6577887409307,FuelLeak,0.685,,,,None
2025-10-19_12:20:17,-25.93060563876331,-179.472458922003,0.001356543200664358,0.0,39.87026949835517,-104.7109278760834,-1.139547473407459,10.16264665259941,FuelLeak,0.595,,,,None
2025-10-19_12:20:19,149.6535746589589,-25.92300990261958,-179.4612318239306,0.001613348645010953,0.0,39.87026950849493,-104.7109278849316,-1.139232590721422,EngineFailure,0.63,,,,None
2025-10-19_12:20:20,10.15900943030702,149.6490205944778,-25.91553399359559,-179.4527189701479,-0.00119481935166881,0.0,39.87026951889013,-104.7109278939769,FuelLeak,0.805,,,,None
2025-10-19_12:20:21,-1.138857658594252,10.1627152439226,149.6443542903007,-25.91093538435228,-179.4422698786597,0.001847828388435095,0.0,39.8702695270677,FuelLeak,0.755,,,,None
2025-10-19_12:20:22,-104.7109279011402,-1.138431249867512,10.16280049521896,149.6405892178944,-25.90697333974232,-179.4336363853006,-0.000995668776926916,0.0,FuelLeak,0.605,,,,None
2025-10-19_12:20:23,39.87026953715567,-104.7109279098938,-1.137824623024975,10.16275287654221,149.6357486358096,-25.90259149513354,-179.4227783368857,0.001974569897006718,EngineFailure,0.48,,,,None
2025-10-19_12:20:24,39.87026954672826,-104.7109279182411,-1.137114931315602,10.15909410881578,149.6310542103935,-25.89785599781201,-179.4120245408697,-0.0009056611238135262,EngineFailure,0.48,,,,None
2025-10-19_12:20:26,0.0,39.87026955660468,-104.7109279268218,-1.136389071017376,10.1591060265678,149.6262673467407,-25.89439028226755,-179.4010932161349,FuelLeak,0.67,,,,None
2025-10-19_12:20:27,-0.0008683175799782832,0.0,39.87026956473038,-104.7109279338881,-1.13582076256713,10.16284988823608,149.6224526691151,-25.89277224930815,FuelLeak,0.775,,,,None
2025-10-19_12:20:28,-179.3923023396476,0.002103519751088268,0.0,39.87026957487929,-104.7109279426741,-1.134992902900493,10.16285617312802,149.6174955629301,FuelLeak,0.685,,,,None
2025-10-19_12:20:29,-25.88980947391135,-179.3809112944102,0.002143451187965124,0.0,39.87026958477135,-104.7109279512174,-1.134151715198494,10.16285901307249,FuelLeak,0.595,,,,None
2025-10-19_12:20:30,149.6126559626964,-25.88720940766279,-179.3697499302402,0.002185192265827834,0.0,39.87026959484614,-104.7109279598601,-1.133267549293505,EngineFailure,0.63,,,,None
2025-10-19_12:20:31,10.16279074637319,149.6076797863914,-25.88483272957758,-179.3583587926908,0.002232653725232534,0.0,39.87026960254804,-104.7109279664914,FuelLeak,0.805,,,,None
2025-10-19_12:20:32,-1.132506427512895,10.15912214521729,149.6038411009444,-25.8822159465662,-179.349370015363,-0.0007904396121830126,0.0,39.87026961283976,FuelLeak,0.755,,,,None
2025-10-19_12:20:34,-104.7109279753104,-1.131563789476589,10.15911785340524,149.5988509531385,-25.88024032279674,-179.3377407667745,-0.0007906401551707903,0.0,FuelLeak,0.605,,,,None
2025-10-19_12:20:35,39.87026962292293,-104.7109279839229,-1.130626816262414,10.1591115606299,149.5939975034653,-25.87854834702738,-179.3263854464868,-0.0007953713140588445,EngineFailure,0.48,,,,None
2025-10-19_12:20:36,0.0,39.87026963171022,-104.7109279913946,-1.129874804725616,10.16276836184053,149.589878236683,-25.87823507596644,-179.3167899965339,FuelLeak,0.67,,,,None
2025-10-19_12:20:37,0.002362372937011251,39.87026964023543,-104.710927999845,-1.12893825026625,10.16275568556497,149.5851560758865,-25.87699142945927,-179.3056615256604,FuelLeak,0.67,,,,None
2025-10-19_12:20:38,0.002393072346111575,0.0,39.87026965040425,-104.7109280072793,-1.128112935698252,10.16281869597747,149.5811072800617,-25.87608483370373,FuelLeak,0.775,,,,None
2025-10-19_12:20:39,-179.2959454753355,0.002414333168739812,0.0,39.87026966084337,-104.7109280160865,-1.127132995913174,10.16280250864691,149.5762500321052,FuelLeak,0.685,,,,None
2025-10-19_12:20:41,-25.87523502554324,-179.2844079211985,0.002450169862816293,0.0,39.87026967157587,-104.7109280250708,-1.126134863557612,10.16270331998262,FuelLeak,0.595,,,,None
