time,lat,lon,alt_ft,airspeed_kt,heading_deg,pitch_deg,roll_deg,vsi_fps,pred,f_prob,target_icao,cmd_heading,cmd_alt,cmd_throttle
2025-10-24_22:12:34,39.81124475331671,-104.705322463055,1904.186759741937,85.64678526039287,147.9831609498636,-4.52548020315117,-6.547035178903323,-6.232445909153757,Normal,0.785,,,,None
2025-10-24_22:12:38,39.80964764354486,-104.7041013372586,1876.949207429755,85.46359862636295,141.9084917416122,-3.748923964925609,-6.412525567846354,-4.353324748163005,Normal,0.835,,,,None
2025-10-24_22:12:43,39.80796886395755,-104.7025435888497,1857.188053374362,84.68250119544876,136.6083096509338,-3.573789500531018,-6.470409367950925,-4.260573980237911,Normal,0.835,,,,None
2025-10-24_22:12:47,39.80654231922812,-104.7009237246372,1837.892311928789,84.18563447998089,130.9460722566942,-3.982811307591927,-6.621280849536156,-5.458946558087669,Normal,0.835,,,,None
2025-10-24_22:12:51,39.80523615950549,-104.6990338774054,1812.201837346051,84.40756518422737,124.8002748276705,-4.438735146257228,-6.707541452281299,-6.502108715450264,Normal,0.785,,,,None
2025-10-24_22:12:56,39.80405850482686,-104.6971774324255,1785.103024654178,84.91819970840517,119.3285203199698,-4.466844637501961,-6.67200481116789,-6.347793942387329,Normal,0.785,,,,None
2025-10-24_22:13:00,39.80309620036697,-104.6952024409779,1758.670433226594,85.1588581128486,113.8418148140575,-4.14945693389501,-6.591255567787763,-5.464041590515397,Normal,0.835,,,,None
2025-10-24_22:13:05,39.80220820720836,-104.6929819623751,1733.736451925399,84.96461448178096,107.6843880451065,-3.901750746306172,-6.574472843227362,-4.942017191365386,Normal,0.835,,,,None
2025-10-24_22:13:09,39.80156606117158,-104.6908271904762,1712.661406051902,84.64595498074387,102.14255691362,-3.912837620206929,-6.625075230368525,-5.105834092845591,Normal,0.835,,,,None
2025-10-24_22:13:13,39.80108003436269,-104.688730906835,1691.47483600886,84.52564274831363,96.64392425194586,-4.099741245455032,-6.689109723320328,-5.615953623715207,Normal,0.835,,,,None
2025-10-24_22:13:17,39.80076722097418,-104.6865104079305,1667.517639487409,84.66217623968801,91.07363626143592,-4.249722210806393,-6.719238727250796,-5.914822602207642,Normal,0.705,,,,None
2025-10-24_22:13:22,39.80061081484683,-104.6843187680261,1642.703674663382,84.86349032168145,85.41591341285302,-4.225408151421091,-6.705981898436217,-5.769137127660978,Normal,0.705,,,,None
2025-10-24_22:13:26,39.80062481744157,-104.682099284164,1618.451640901461,84.92892819859988,79.77753443763066,-4.092738395102772,-6.684903595816241,-5.41720309013845,Normal,0.705,,,,None
2025-10-24_22:13:30,39.80080282465679,-104.6799509235689,1595.754219655359,84.83600704085073,74.21575690480952,-3.998695161160368,-6.688913787123739,-5.2220518923562,Normal,0.705,,,,None
2025-10-24_22:13:34,39.80112934245973,-104.6778992781879,1574.032994997571,84.70877937696574,68.68894132579312,-4.014514866710212,-6.719160822629521,-5.312902461254163,Normal,0.705,,,,None
2025-10-24_22:13:38,39.80164047851645,-104.6758660638965,1551.413594541385,84.67421044105443,62.96756433860121,-4.093642194141146,-6.752497583337236,-5.520983879440635,Normal,0.705,,,,None
2025-10-24_22:13:42,39.80227888244014,-104.6739804555147,1528.507101600096,84.74026794515697,57.31934122545013,-4.144262904772309,-6.768744517527341,-5.614904662115957,Normal,0.705,,,,None
2025-10-24_22:13:47,39.80307351638464,-104.6721546445404,1504.679932723896,84.82055380033478,51.61206990019346,-4.123264897783316,-6.768704734655296,-5.519879873287304,Normal,0.69,,,,None
2025-10-24_22:13:51,39.80405826124921,-104.6704285089593,1480.405685966376,84.83868941874105,45.66504124469999,-4.062308229224043,-6.767845521701547,-5.369956378695059,Normal,0.655,,,,None
2025-10-24_22:13:55,39.80511243676414,-104.668905805484,1457.850093357126,84.7933887726306,39.98404327379556,-4.028334791678978,-6.778725457035812,-5.306478062936057,Normal,0.635,,,,None
2025-10-24_22:14:00,39.80627649232468,-104.6675671312596,1435.585957576729,84.74659537303214,34.30142965256565,-4.041157442055131,-6.798722934359563,-5.356725191429446,Normal,0.63,,,,None
2025-10-24_22:14:04,39.80752718340373,-104.666416504188,1412.896272925979,84.74425436150608,28.57732266644589,-4.072722166207898,-6.817772785410464,-5.434183151434008,Normal,0.63,,,,None
2025-10-24_22:14:08,39.8088494867775,-104.6654568179517,1390.214660364304,84.77788940663723,22.74496782749375,-4.085324873183761,-6.829122827600552,-5.449085467280568,Normal,0.63,,,,None
2025-10-24_22:14:12,39.8103657552465,-104.6646668708133,1366.163100405409,84.81047539960606,16.85565811926899,-4.068114694141459,-6.833734632880332,-5.393368303514253,Normal,0.63,,,,None
2025-10-24_22:14:16,39.81185069586498,-104.6641237753837,1343.830730871423,84.81044274382461,11.11895110395545,-4.043110661003774,-6.83904465577903,-5.332597957554992,Normal,0.63,,,,None
2025-10-24_22:14:21,39.81335999668709,-104.6638002894955,1321.073474385949,84.78987658208213,5.328881661169028,-4.033477220689546,-6.848805121558452,-5.316932911743076,Normal,0.63,,,,None
2025-10-24_22:14:25,39.81486668299667,-104.6636974951934,1298.777749241994,84.77571174101966,359.5851669082892,-4.04181316453565,-6.860740250525266,-5.342793929188251,Normal,0.835,,,,None
2025-10-24_22:14:29,39.81642364426736,-104.6638167952194,1276.512236086929,84.78146557112576,353.8410877184383,-4.053827766349191,-6.870436659051024,-5.369154642011286,Normal,0.835,,,,None
2025-10-24_22:14:33,39.81792904090357,-104.6641460078826,1253.876945581264,84.79870685883893,347.9951777399981,-4.054779523919028,-6.876898908795524,-5.362373540976246,Normal,0.835,,,,None
2025-10-24_22:14:38,39.81954728789581,-104.6647758370362,1229.212799287738,84.81219412674591,341.7164385312498,-4.044631380564509,-6.880580030364551,-5.332051660766118,Normal,0.835,,,,None
2025-10-24_22:14:42,39.82088048802228,-104.6656128449675,1205.801889594801,84.81052096860337,335.6269556846539,-4.033583555363653,-6.885475703425044,-5.305799948107747,Normal,0.835,,,,None
2025-10-24_22:14:46,39.82239780189223,-104.6666205227466,1183.559701992275,84.80363926653993,329.841828164826,-4.031106455385917,-6.891715624587396,-5.3019447239737,Normal,0.835,,,,None
2025-10-24_22:14:51,39.82366307296547,-104.6678255842024,1161.112084524354,84.80177286422196,324.1416400666447,-4.034622582541999,-6.898582804172565,-5.310525942740655,Normal,0.835,,,,None
2025-10-24_22:14:55,39.82477957034003,-104.6692404292126,1135.176457910621,84.80977768219023,317.0121391914379,-4.037450972180609,-6.904875764979145,-5.312923751427404,Normal,0.835,,,,None
2025-10-24_22:15:00,39.82608209227354,-104.6710659314832,1112.201488019779,84.81852544732433,311.1930520123033,-4.034325756653666,-6.908519640232768,-5.300890425596373,Normal,0.835,,,,None
2025-10-24_22:15:04,39.82700605018535,-104.67280666802,1089.985439211755,84.82267983024376,305.0561651514966,-4.028014611244306,-6.91217517302286,-5.282330714263918,Normal,0.835,,,,None
2025-10-24_22:15:09,39.82793425217619,-104.6751374608229,1062.740600747924,84.82171492088267,298.2181195985982,-4.023278010589879,-6.916994034523481,-5.270323972390153,Normal,0.835,,,,None
2025-10-24_22:15:14,39.82852636643001,-104.6771119429122,1040.428803734338,84.82111543534971,292.2780694202577,-4.022802846424484,-6.921688474306156,-5.268289377235361,Normal,0.835,,,,None
2025-10-24_22:15:18,39.82895302642158,-104.6791253069607,1018.214233496161,84.82375940580059,286.4483363580339,-4.023217036675023,-6.926076469627716,-5.266962199266863,Normal,0.835,,,,None
2025-10-24_22:15:22,39.82921278329997,-104.6813388578806,996.3579289259877,84.85509604969465,280.5580783862899,-4.01486029723718,-6.921421064131107,-5.216689060825145,Normal,0.835,,,,None
2025-10-24_22:15:26,39.82930630336732,-104.6835632837156,974.2345432944924,84.92567140459242,274.6708531094373,-3.944310554150257,-6.910796757248248,-5.016017406800458,Normal,0.835,,,,None
2025-10-24_22:15:30,39.8292297041375,-104.6857448417164,953.2774469610564,84.88945510636846,268.8796159895991,-3.874483990190405,-6.911829592388627,-4.858664511660125,Normal,0.835,,,,None
2025-10-24_22:15:34,39.82897883761505,-104.6879501134679,932.803945725822,84.80724254636189,262.9389167504808,-3.868237229678809,-6.932093967661505,-4.883010567887615,Normal,0.835,,,,None
2025-10-24_22:15:39,39.8285355144516,-104.6901976396595,911.2883047867994,84.77134798740757,256.7879217918275,-3.927650077405081,-6.962435340921542,-5.040812217583839,Normal,0.835,,,,None
2025-10-24_22:15:44,39.82775003214023,-104.6928548373221,885.329197147713,84.82493043100959,249.5208599605736,-3.955179949405562,-6.974254418278203,-5.079851023095323,Normal,0.835,,,,None
2025-10-24_22:15:49,39.82686186728262,-104.6950796545223,859.4239507137361,84.87960344799923,242.2242718238869,-3.929507727808347,-6.978157679664728,-4.995218194144903,Normal,0.835,,,,None
2025-10-24_22:15:54,39.82572812682294,-104.697252412013,838.1189912637041,84.87045363204088,236.3006549126385,-3.896030310422599,-6.983653877601174,-4.915596618893305,Normal,0.835,,,,None
2025-10-24_22:15:58,39.82461874342181,-104.6990150662656,817.2986739527622,84.83395296208235,230.4221495741713,-3.888822367147495,-6.997334900929202,-4.912536224415001,Normal,0.835,,,,None
2025-10-24_22:16:02,39.82336344726803,-104.7005620751907,797.5974649323854,84.81177360314979,224.8414416522691,-3.907218268405061,-7.015036038415631,-4.968426708271899,Normal,0.835,,,,None
2025-10-24_22:16:06,39.82192460395013,-104.7020860454169,775.8628396873271,84.82027263231956,218.5588646197021,-3.929929342290173,-7.030259230782431,-5.018356460780858,Normal,0.835,,,,None
2025-10-24_22:16:11,39.82025037988199,-104.703498964541,753.2129263999651,84.84565136695751,212.0331685847658,-3.933718361106764,-7.040038601724657,-5.011253974021504,Normal,0.81,,,,None
2025-10-24_22:16:15,39.81863227833903,-104.7045634288534,731.6707704249756,84.85707411513532,206.1871810230525,-3.921422385880202,-7.04671016852767,-4.977132181953239,Normal,0.615,,,,None
2025-10-24_22:16:19,39.81691785464411,-104.7054384795999,710.7244027336629,84.84542395802603,200.2082159967676,-3.912931385902051,-7.05560786646978,-4.960237640028652,Normal,0.615,,,,None
2025-10-24_22:16:23,39.81523564465235,-104.7060761570685,690.6294275447516,84.82827046050114,194.2573205360133,-3.917781171283654,-7.069036303865166,-4.977506638295957,Normal,0.6,,,,None
2025-10-24_22:16:28,39.81335635105283,-104.7065104769285,669.2224794003301,84.82350974873621,188.3368300578513,-3.930865902374129,-7.081127664720397,-5.010599127628899,Normal,0.59,,,,None
2025-10-24_22:16:32,39.81153493280335,-104.7067101319429,648.470792490933,84.82876932225571,182.3239566950922,-3.942076797307987,-7.091238790310258,-5.034125423210067,Normal,0.59,,,,None
2025-10-24_22:16:36,39.80979894158012,-104.7066752975799,626.0284640267438,84.83682650107025,175.8801896162734,-3.945845986954673,-7.09877620821322,-5.038161816355933,Normal,0.59,,,,None
2025-10-24_22:16:41,39.80770062538764,-104.7063905067406,603.7362695281536,84.839500315738,169.8424221363627,-3.943988759181904,-7.106204122689016,-5.031539531565418,Normal,0.59,,,,None
2025-10-24_22:16:45,39.80588326727849,-104.7058787400989,580.5053626901341,84.83137221932652,163.0398755700422,-3.945397933292403,-7.116327723791118,-5.036988775520757,Normal,0.59,,,,None
2025-10-24_22:16:49,39.80387422926611,-104.7050286261811,558.4249689021851,84.82466216144324,157.0399521445053,-3.952190172304542,-7.122736951305794,-5.055195749911181,Normal,0.59,,,,None
2025-10-24_22:16:54,39.80220615671,-104.7040589739141,537.0642600384165,84.82280166936154,151.0654794106092,-3.961473372887863,-7.130359857723441,-5.079992858125122,Normal,0.59,,,,None
2025-10-24_22:16:59,39.80022904966242,-104.7025684645027,510.5687854630601,84.82563572426183,143.6191703285314,-3.969894057311386,-7.138954724782661,-5.093919749205163,Normal,0.59,,,,None
2025-10-24_22:17:03,39.79875926491362,-104.7011596122511,489.5210678736949,84.8576596862492,137.6924606560045,-3.960957315792528,-7.129223883590338,-5.037875030950826,Normal,0.59,,,,None
2025-10-24_22:17:08,39.79721838763681,-104.6993261609148,464.9918991624245,84.87429378429223,130.7367104464843,-3.917443003718577,-7.125634552639882,-4.936070132854576,Normal,0.59,,,,None
2025-10-24_22:17:12,39.79601714268348,-104.6975553706074,444.5449234101836,84.83547966206386,124.7419438764309,-3.895700459742106,-7.129545429202299,-4.898055522079644,Normal,0.59,,,,None
2025-10-24_22:17:16,39.79500578529341,-104.6958213256897,424.8978781425267,84.79409401107708,118.3938745982178,-3.911239949702922,-7.143340644033733,-4.95152082007763,Normal,0.59,,,,None
2025-10-24_22:17:21,39.79402353414872,-104.6935612151214,402.0852988814441,84.79014760414482,112.3384352342667,-3.941407908051834,-7.154441863773132,-5.025735553309913,Normal,0.59,,,,None
2025-10-24_22:17:25,39.79325287303153,-104.6914036201154,380.027247971075,84.81534523245234,106.0202045492583,-3.955888216820093,-7.160234859147219,-5.047069570562942,Normal,0.59,,,,None
2025-10-24_22:17:29,39.79270429473208,-104.6892147961304,358.713481197434,84.83580052703552,99.90106574001997,-3.948133530487475,-7.161411381351559,-5.01883555014386,Normal,0.59,,,,None
2025-10-24_22:17:34,39.79232657557026,-104.6869825810365,337.7225034835379,84.83313100377416,93.86213286374304,-3.934439673698333,-7.163098372122269,-4.98577638327132,Normal,0.555,,,,None
2025-10-24_22:17:38,39.79213055118689,-104.6847854733589,316.8180394218704,84.81512422312782,87.76984378992711,-3.932072618821617,-7.169016334277935,-4.986776904565105,Normal,0.46,,,,None
2025-10-24_22:17:42,39.7921109195594,-104.6825641668407,295.9088975638469,84.80218540985135,81.75421393608397,-3.942986253263075,-7.176631124036074,-5.017415745974578,Normal,0.46,,,,None
2025-10-24_22:17:46,39.79226728592066,-104.6803651021703,274.6235843596949,84.80387353171537,75.71815035293689,-3.956428151133965,-7.1826376182701,-5.04816679496331,Normal,0.46,,,,None
2025-10-24_22:17:50,39.79260617685544,-104.678242013251,253.5493579095797,84.81506284749858,69.60136107703164,-3.962229722350737,-7.185736251592203,-5.056528709412907,Normal,0.46,,,,None
2025-10-24_22:17:55,39.79307866546139,-104.6762839304407,233.0737367909449,84.82231878129323,63.82903992731398,-3.95970449154004,-7.187064669208634,-5.04678844384772,Normal,0.46,,,,None
2025-10-24_22:17:59,39.79374779471908,-104.6743553740255,211.921152757774,84.82001953188092,57.62811618985952,-3.955832906052814,-7.188356631248594,-5.037180790463657,Normal,0.46,,,,None
2025-10-24_22:18:03,39.79460023789568,-104.6723646258004,190.0074436617214,84.81433253885308,51.27388435664557,-3.95678210500769,-7.19127497062212,-5.04126675184915,Normal,0.445,,,,None
2025-10-24_22:18:07,39.79556887980448,-104.6706758192704,168.7044723298861,84.80945270776333,45.10644283852347,-3.962764282826337,-7.194285583617584,-5.056698625868706,FuelLeak,0.415,,,,None
2025-10-24_22:18:11,39.79665325357602,-104.6691490738104,147.381231040253,84.81296342972963,39.00386431636255,-3.968491250853307,-7.195713412328235,-5.068219265838617,FuelLeak,0.405,,,,None
2025-10-24_22:18:15,39.79786754732094,-104.6678087201378,126.0105726489998,84.81827550416116,32.82104418383408,-3.970346018310601,-7.195995233767146,-5.069531512689561,FuelLeak,0.405,,,,None
2025-10-24_22:18:20,39.79916806719679,-104.6666493997982,104.7630574549759,84.82190696831138,26.69274280817575,-3.96845105737327,-7.195160646534138,-5.062549579047546,FuelLeak,0.405,,,,None
2025-10-24_22:18:24,39.80059254026506,-104.6657000292259,83.4588445547673,84.82216827851265,20.54585657635417,-3.966362545477511,-7.194493289868992,-5.05655648695968,FuelLeak,0.405,,,,None
2025-10-24_22:18:28,39.80206071972116,-104.6649710700236,62.26292650986389,84.82076826183086,14.39270354550069,-3.966081360272349,-7.194043238358152,-5.055492744220714,FuelLeak,0.405,,,,None
2025-10-24_22:18:32,39.8035786580352,-104.6644670073194,41.02932832938967,84.82092109523404,8.233015007730483,-3.966317086996753,-7.193401155250775,-5.014941430259348,FuelLeak,0.405,,,,None
2025-10-24_22:18:36,39.80512444155261,-104.6641903173776,20.14737971394069,84.82404235050805,2.030052701852129,-3.744385698112709,-7.221616623759931,-3.968637758480675,FuelLeak,0.405,,,,None
2025-10-24_22:18:41,39.80668657404387,-104.6641508171438,4.795921192084928,85.11527456001578,315.6587024756679,-38.7560314461688,0.97612568705905,6.721641697183777,FuelLeak,0.51,,,,None
2025-10-24_22:18:45,0.0,39.80778015002881,-104.6644447352095,0.5391326022809042,32.69218594828506,173.9833539879644,-26.15476902251465,179.690757021774,FuelLeak,0.635,,,,None
2025-10-24_22:18:48,-0.1397824257218385,0.0,39.8079286383243,-104.6644561628003,-1.059685365537897,5.92294070304917,173.9742781608008,-26.21237266022164,FuelLeak,0.775,,,,None
2025-10-24_22:18:49,-179.4980134949375,-0.003897084613965981,0.0,39.80792862502545,-104.6644561567913,-1.069647002075677,5.927642909981208,173.9570708671013,FuelLeak,0.685,,,,None
2025-10-24_22:18:51,-26.20145592217199,-179.4364326074685,0.0001994020451845012,0.0,39.80792862518307,-104.6644561560071,-1.069454291800025,5.926629621421391,FuelLeak,0.595,,,,None
2025-10-24_22:18:53,173.9866363010066,-26.20194657656961,-179.5033388317576,-2.172370942888182,0.0,39.80792862518384,-104.6644561560035,-1.069457109079274,EngineFailure,0.63,,,,None
2025-10-24_22:18:54,5.926631102871359,173.9866656290546,-26.20194331449935,-179.5033497844018,-1.946905375293274,0.0,39.80792862518386,-104.6644561560035,FuelLeak,0.805,,,,None
2025-10-24_22:18:55,-1.069457106752866,5.926630853941234,173.9866655487573,-26.20194324042743,-179.5033497901255,-9.044745010025885,0.0,39.80792862518384,FuelLeak,0.66,,,,None
2025-10-24_22:18:57,-104.6644561560035,-1.069457109079274,5.926630872465503,173.9866655738159,-26.20194326155744,-179.5033498469778,2.130991937910548,0.0,FuelLeak,0.605,,,,None
2025-10-24_22:18:58,39.80792862518386,-104.6644561560035,-1.069457099773645,5.926631003037018,173.9866655723376,-26.20194325859249,-179.503349843666,1.886912512676082,EngineFailure,0.48,,,,None
2025-10-24_22:18:59,0.0,39.80792862518386,-104.6644561560035,-1.069457106752866,5.926630960988565,173.986665576272,-26.20194321679127,-179.5033498522692,FuelLeak,0.67,,,,None
2025-10-24_22:19:00,-2.653993788262194,39.80792862518388,-104.6644561560035,-1.069457106752866,5.926631021602272,173.9866656050853,-26.20194325423579,-179.503349917717,FuelLeak,0.67,,,,None
2025-10-24_22:19:02,1.04063669558112,0.0,39.80792862518388,-104.6644561560035,-1.069457106752866,5.926631096969821,173.9866656189965,-26.20194326427529,FuelLeak,0.775,,,,None
2025-10-24_22:19:03,-179.5033499493012,1.91352167898018,0.0,39.8079286251839,-104.6644561560035,-1.069457102100052,5.926631006889411,173.9866655779047,FuelLeak,0.685,,,,None
2025-10-24_22:19:04,-26.20194326066751,-179.5033498564425,1.804794470237324,0.0,39.8079286251839,-104.6644561560035,-1.069457109079273,5.926631017299068,FuelLeak,0.595,,,,None
2025-10-24_22:19:05,173.9866656394802,-26.20194326974748,-179.5033499950911,2.309850391385444,0.0,39.80792862518391,-104.6644561560035,-1.069457106752866,EngineFailure,0.63,,,,None
2025-10-24_22:19:06,5.926631137460924,173.9866655912503,-26.20194325358549,-179.5033498860079,-1.813509526535442,0.0,39.80792862518391,-104.6644561560035,FuelLeak,0.805,,,,None
2025-10-24_22:19:08,-1.069457111405681,5.926631097584565,173.9866655504415,-26.20194328286516,-179.5033497940532,-1.20822563218953,0.0,39.8079286251839,FuelLeak,0.755,,,,None
2025-10-24_22:19:09,-104.6644561560035,-1.069457097447237,5.926630987176637,173.9866655609819,-26.20194325401378,-179.5033498176845,-1.611523143863228,0.0,FuelLeak,0.605,,,,None
2025-10-24_22:19:10,39.80792862518386,-104.6644561560035,-1.069457109079273,5.926631035003679,173.9866655692321,-26.20194321902295,-179.5033498361,5.799122172986978,EngineFailure,0.48,,,,None
2025-10-24_22:19:11,0.0,39.80792862518388,-104.6644561560035,-1.069457106752866,5.926631039757696,173.9866656385017,-26.20194327398626,-179.5033499931442,FuelLeak,0.67,,,,None
2025-10-24_22:19:12,1.87525125549317,0.0,39.80792862518391,-104.6644561560035,-1.069457099773644,5.926630920169599,173.9866655663094,-26.20194322388797,FuelLeak,0.775,,,,None
2025-10-24_22:19:13,-179.5033498296374,-5.804823740265685,39.80792862518393,-104.6644561560035,-1.069457109079273,5.926630930210409,173.9866656520635,-26.20194324745781,FuelLeak,0.775,,,,None
2025-10-24_22:19:14,-179.5033500236704,-2.204235976684273,0.0,39.80792862518394,-104.6644561560035,-1.069457097447237,5.926630981193135,173.9866655919493,FuelLeak,0.685,,,,None
2025-10-24_22:19:16,-26.20194325650364,-179.5033498879273,3.239110882497687,0.0,39.80792862518396,-104.6644561560035,-1.069457092794422,5.926631304507212,FuelLeak,0.595,,,,None
2025-10-24_22:19:17,173.9866656002376,-26.20194328576186,-179.5033499069279,-4.260925214070175,0.0,39.80792862518395,-104.6644561560035,-1.069457109079274,EngineFailure,0.63,,,,None
2025-10-24_22:19:18,5.926631109182724,173.9866655892582,-26.20194326669854,-179.5033498820211,2.567349529095103,0.0,39.80792862518396,-104.6644561560035,FuelLeak,0.805,,,,None
2025-10-24_22:19:19,-1.069457092794422,5.926631134141308,173.9866655930963,-26.20194329251872,-179.5033498909346,-1.509183489615889,0.0,39.80792862518396,FuelLeak,0.755,,,,None
2025-10-24_22:19:20,-104.6644561560035,-1.06945709512083,5.926631063609743,173.9866656110194,-26.20194325919055,-179.503349931216,1.758755659302641,0.0,FuelLeak,0.605,,,,None
2025-10-24_22:19:21,39.80792862518398,-104.6644561560035,-1.069457104426459,5.926630879432596,173.9866655969733,-26.20194324706721,-179.5033498994158,1.26264151970223,EngineFailure,0.48,,,,None
2025-10-24_22:19:22,0.0,39.80792862518395,-104.6644561560035,-1.069457102100052,5.926631325654386,173.9866655877563,-26.20194329407046,-179.5033498790079,FuelLeak,0.67,,,,None
2025-10-24_22:19:24,-1.768811057128802,0.0,39.80792862518398,-104.6644561560035,-1.069457099773645,5.926630910046821,173.9866656245066,-26.20194328013355,FuelLeak,0.775,,,,None
2025-10-24_22:19:25,-179.5033499613925,2.180281814245784,0.0,39.80792862518396,-104.6644561560035,-1.069457099773644,5.926631167993182,173.9866656149993,FuelLeak,0.685,,,,None
2025-10-24_22:19:26,-26.20194327871566,-179.5033499399326,-1.384124035644425,39.80792862518398,-104.6644561560035,-1.069457099773645,5.92663090238302,173.9866656030921,FuelLeak,0.685,,,,None
2025-10-24_22:19:27,-26.20194322909035,-179.5033499126697,-2.284151521577242,0.0,39.80792862518393,-104.6644561560035,-1.069457109079273,5.92663096205412,FuelLeak,0.595,,,,None
2025-10-24_22:19:28,173.9866655901104,-26.201943218445,-179.503349883301,-8.51130445441042,0.0,39.8079286251839,-104.6644561560035,-1.069457097447237,EngineFailure,0.565,,,,None
2025-10-24_22:19:29,5.926631467578153,173.9866656167036,-26.20194327719311,-179.5033499439039,-7.343941352289286,0.0,39.80792862518393,-104.6644561560035,FuelLeak,0.8,,,,None
2025-10-24_22:19:31,-1.069457111405681,5.926630984430783,173.9866656061646,-26.20194325399428,-179.5033499199458,-2.820490976368657,0.0,39.80792862518395,FuelLeak,0.66,,,,None
2025-10-24_22:19:32,-104.6644561560035,-1.06945709512083,5.926630774926203,173.9866655978618,-26.20194321567668,-179.5033499009323,-6.325563079692976,0.0,FuelLeak,0.415,,,,None
2025-10-24_22:19:34,39.80792862518393,-104.6644561560035,-1.069457097447237,5.926631095986232,173.9866655930632,-26.20194327346786,-179.5033498905786,2.693854055851847,EngineFailure,0.48,,,,None
2025-10-24_22:19:35,0.0,39.80792862518394,-104.6644561560035,-1.069457090468015,5.926630878735886,173.9866655910215,-26.20194325325235,-179.5033498858653,FuelLeak,0.67,,,,None
2025-10-24_22:19:36,1.588709761955535,0.0,39.80792862518398,-104.6644561560035,-1.069457104426459,5.926630929308785,173.986665604076,-26.20194327979575,FuelLeak,0.775,,,,None
2025-10-24_22:19:37,-179.5033499156154,2.534124331916643,0.0,39.80792862518398,-104.6644561560035,-1.069457106752866,5.926630973160486,173.9866655742025,FuelLeak,0.685,,,,None
2025-10-24_22:19:38,-26.20194322976564,-179.5033498477436,-5.815978665921681,39.80792862518398,-104.6644561560035,-1.06945709512083,5.926630851974054,173.986665584827,FuelLeak,0.705,,,,None
2025-10-24_22:19:39,-26.20194324084133,-179.5033498719154,1.504778409796343,39.80792862518397,-104.6644561560035,-1.069457097447237,5.926631069183416,173.9866656045534,FuelLeak,0.685,,,,None
2025-10-24_22:19:40,-26.20194324991616,-179.5033499166255,-1.890628779752896,0.0,39.80792862518395,-104.6644561560035,-1.069457099773644,5.926630912382847,FuelLeak,0.595,,,,None
2025-10-24_22:19:41,173.9866655504874,-26.20194325033509,-179.5033497944978,2.042418628523147,0.0,39.80792862518398,-104.6644561560035,-1.069457106752866,EngineFailure,0.63,,,,None
2025-10-24_22:19:43,5.926630880498152,173.9866655631427,-26.20194321630322,-179.5033498228706,-5.880459190762383,0.0,39.80792862518393,-104.6644561560035,FuelLeak,0.8,,,,None
2025-10-24_22:19:44,-1.069457104426459,5.926630911973018,173.9866655601801,-26.20194322020831,-179.5033498162588,-5.822390756893926,0.0,39.80792862518392,FuelLeak,0.66,,,,None
2025-10-24_22:19:45,-104.6644561560035,-1.069457099773645,5.926631198320527,173.9866655878199,-26.20194328700804,-179.5033498786676,-6.837107671030069,0.0,FuelLeak,0.415,,,,None
2025-10-24_22:19:46,39.80792862518393,-104.6644561560035,-1.069457099773645,5.926631093609223,173.9866655988722,-26.20194327339033,-179.503349903584,-1.531058691318074,EngineFailure,0.48,,,,None
2025-10-24_22:19:47,0.0,39.80792862518393,-104.6644561560035,-1.069457106752866,5.926631178812666,173.9866655857517,-26.20194329769144,-179.503349874158,FuelLeak,0.67,,,,None
2025-10-24_22:19:48,-1.803158930892442,0.0,39.80792862518395,-104.6644561560036,-1.069457097447237,5.926631087133926,173.9866656096207,-26.20194330976641,FuelLeak,0.775,,,,None
2025-10-24_22:19:49,-179.5033499282403,-2.131708348761785,0.0,39.80792862518394,-104.6644561560036,-1.069457092794422,5.926631175247155,173.9866656187831,FuelLeak,0.685,,,,None
2025-10-24_22:19:50,-26.20194327831663,-179.5033499487411,-4.786961511737726,0.0,39.80792862518396,-104.6644561560036,-1.069457099773644,5.926631039142952,FuelLeak,0.615,,,,None
2025-10-24_22:19:51,173.9866656082102,-26.20194320177607,-179.5033499242842,6.976773745511089,39.80792862518398,-104.6644561560036,-1.06945709512083,5.926630845498757,FuelLeak,0.66,,,,None
2025-10-24_22:19:53,173.9866656233878,-26.20194323293921,-179.5033499588798,-1.991368487567607,39.80792862518398,-104.6644561560036,-1.069457102100052,5.926630900743704,FuelLeak,0.66,,,,None
2025-10-24_22:19:54,173.9866656175608,-26.20194321497092,-179.5033499456044,-4.307946556693046,0.0,39.80792862518398,-104.6644561560036,-1.069457104426459,EngineFailure,0.63,,,,None
2025-10-24_22:19:55,5.926631092379736,173.9866656143398,-26.20194323048725,-179.5033499384878,1.137435293416403,0.0,39.80792862518398,-104.6644561560036,FuelLeak,0.805,,,,None
2025-10-24_22:19:56,-1.06945709512083,5.926630871236016,173.9866656508916,-26.20194323708083,-179.5033500211842,1.621920983196124,0.0,39.80792862518403,FuelLeak,0.755,,,,None
2025-10-24_22:19:57,-104.6644561560036,-1.069457097447237,5.926630957136173,173.9866656227116,-26.20194322170229,-179.503349957421,-3.91142983952956,0.0,FuelLeak,0.585,,,,None
2025-10-24_22:19:59,39.80792862518403,-104.6644561560036,-1.069457097447237,5.926630853490422,173.9866656247378,-26.20194322385378,-179.5033499620511,-2.129592873403544,EngineFailure,0.48,,,,None
2025-10-24_22:20:00,0.0,39.80792862518403,-104.6644561560036,-1.069457092794422,5.926631169960361,173.9866656468634,-26.20194328334371,-179.5033500125672,FuelLeak,0.67,,,,None
2025-10-24_22:20:01,-4.567726125789013,0.0,39.80792862518403,-104.6644561560036,-1.069457097447237,5.926631037052824,173.9866656330918,-26.20194318958235,FuelLeak,0.775,,,,None
2025-10-24_22:20:02,-179.503349980761,-5.096029848906212,0.0,39.80792862518403,-104.6644561560036,-1.069457097447237,5.926630958119762,173.9866656141675,FuelLeak,0.685,,,,None
2025-10-24_22:20:03,-26.20194325609582,-179.5033499385771,2.129302882781271,0.0,39.80792862518404,-104.6644561560036,-1.06945709512083,5.926631131641352,FuelLeak,0.595,,,,None
2025-10-24_22:20:04,173.9866656218146,-26.20194322765641,-179.5033499550603,1.037344995988772,0.0,39.80792862518403,-104.6644561560036,-1.069457090468015,EngineFailure,0.63,,,,None
2025-10-24_22:20:05,5.926631236270689,173.9866656010437,-26.20194328969776,-179.503349908643,8.774290437467334,0.0,39.80792862518404,-104.6644561560036,FuelLeak,0.805,,,,None
2025-10-24_22:20:07,-1.069457092794422,5.926630899350285,173.9866656333157,-26.20194322958146,-179.5033499811308,1.962126121258363,39.80792862518406,-104.6644561560036,FuelLeak,0.78,,,,None
2025-10-24_22:20:08,-1.069457092794422,5.92663083722021,173.9866656405992,-26.20194322082712,-179.5033499975651,-2.60326401455353,0.0,39.80792862518403,FuelLeak,0.66,,,,None
2025-10-24_22:20:09,-104.6644561560036,-1.069457106752866,5.926631028405433,173.9866656114287,-26.20194324845025,-179.5033499319015,6.376699539154995,0.0,FuelLeak,0.605,,,,None
2025-10-24_22:20:10,39.80792862518403,-104.6644561560036,-1.069457099773644,5.926631085658541,173.9866656302686,-26.20194325267301,-179.5033499745537,1.72752312864467,EngineFailure,0.48,,,,None
2025-10-24_22:20:11,0.0,39.807928625184,-104.6644561560036,-1.06945709512083,5.926631094592812,173.9866656662683,-26.20194326858423,-179.5033500560915,FuelLeak,0.67,,,,None
2025-10-24_22:20:12,3.018966113536767,0.0,39.80792862518405,-104.6644561560036,-1.069457092794422,5.926631084306106,173.9866656133363,-26.20194323008277,FuelLeak,0.775,,,,None
2025-10-24_22:20:13,-179.5033499362117,1.824686085593366,0.0,39.80792862518405,-104.6644561560036,-1.069457099773644,5.926631053241069,173.9866656301044,FuelLeak,0.685,,,,None
2025-10-24_22:20:15,-26.20194326981712,-179.5033499744697,2.687262113838707,0.0,39.80792862518403,-104.6644561560036,-1.069457092794422,5.926631134879002,FuelLeak,0.595,,,,None
2025-10-24_22:20:16,173.9866656066841,-26.20194326989406,-179.5033499215754,-3.603199141597993,0.0,39.80792862518405,-104.6644561560036,-1.069457099773645,EngineFailure,0.63,,,,None
2025-10-24_22:20:17,5.926631052093548,173.9866656117557,-26.20194325212875,-179.5033499329375,9.471492385397296,0.0,39.80792862518408,-104.6644561560036,FuelLeak,0.805,,,,None
2025-10-24_22:20:18,-1.06945709512083,5.926630867055761,173.9866656287762,-26.2019432197666,-179.5033499711939,-2.252631785689092,0.0,39.80792862518405,FuelLeak,0.66,,,,None
2025-10-24_22:20:19,-104.6644561560036,-1.069457092794422,5.92663097463587,173.9866656242592,-26.20194325893719,-179.5033499613412,2.621154254408935,39.80792862518404,FuelLeak,0.605,,,,None
2025-10-24_22:20:20,-104.6644561560036,-1.06945709512083,5.926631090371575,173.9866656354401,-26.20194325159371,-179.5033499865823,2.760397995998917,0.0,FuelLeak,0.605,,,,None
2025-10-24_22:20:21,39.80792862518405,-104.6644561560036,-1.06945709512083,5.926630942792158,173.9866656537975,-26.20194326655811,-179.5033500282232,2.200936631055526,EngineFailure,0.48,,,,None
2025-10-24_22:20:23,0.0,39.80792862518403,-104.6644561560036,-1.069457099773644,5.926631099879606,173.9866656399348,-26.20194325018697,-179.5033499968102,FuelLeak,0.67,,,,None
2025-10-24_22:20:24,2.390970007320937,0.0,39.80792862518398,-104.6644561560036,-1.06945709512083,5.926631118526825,173.9866656366014,-26.20194326905996,FuelLeak,0.775,,,,None
2025-10-24_22:20:25,-179.5033499888554,-5.457130157339288,0.0,39.807928625184,-104.6644561560036,-1.069457090468015,5.926631081232388,173.9866656356963,FuelLeak,0.685,,,,None
2025-10-24_22:20:26,-26.20194329218715,-179.5033499870371,-2.81367653351903,0.0,39.80792862518398,-104.6644561560036,-1.06945709512083,5.926630974103093,FuelLeak,0.595,,,,None
2025-10-24_22:20:27,173.9866656641898,-26.20194320498294,-179.5033500507914,-2.848432824553326,0.0,39.807928625184,-104.6644561560036,-1.06945709512083,EngineFailure,0.63,,,,None
2025-10-24_22:20:28,5.926630902424002,173.9866656317821,-26.20194326733859,-179.5033499780905,2.373359195446586,0.0,39.80792862518398,-104.6644561560036,FuelLeak,0.805,,,,None
2025-10-24_22:20:29,-1.069457092794422,5.926631157050749,173.9866656294779,-26.20194326770309,-179.5033499729265,3.01120301165892,0.0,39.807928625184,FuelLeak,0.755,,,,None
2025-10-24_22:20:30,-104.6644561560036,-1.06945709512083,5.926630859146062,173.9866656863589,-26.20194322284081,-179.5033501011636,1.765654916744509,0.0,FuelLeak,0.605,,,,None
2025-10-24_22:20:32,39.80792862518403,-104.6644561560036,-1.069457097447237,5.926630906850156,173.9866656304509,-26.20194323075351,-179.5033499749117,2.161974069681871,EngineFailure,0.48,,,,None
2025-10-24_22:20:33,39.807928625184,-104.6644561560036,-1.069457092794422,5.926630895784773,173.9866656397767,-26.20194322424431,-179.5033499959695,4.943901434358619,EngineFailure,0.48,,,,None
2025-10-24_22:20:34,0.0,39.80792862518401,-104.6644561560036,-1.069457099773644,5.926631113731826,173.9866656549515,-26.20194325627881,-179.5033500305668,FuelLeak,0.67,,,,None
2025-10-24_22:20:36,2.480923330611757,0.0,39.807928625184,-104.6644561560036,-1.069457092794422,5.926631161067073,173.9866656215177,-26.20194326923565,FuelLeak,0.775,,,,None
2025-10-24_22:20:37,-179.503349955157,-7.413244154729487,0.0,39.80792862518403,-104.6644561560036,-1.069457097447237,5.926631009143471,173.9866656502141,FuelLeak,0.685,,,,None
2025-10-24_22:20:38,-26.20194318475807,-179.5033500193774,-1.642706864189228,0.0,39.80792862518403,-104.6644561560036,-1.069457092794422,5.926631067708032,FuelLeak,0.595,,,,None
2025-10-24_22:20:39,173.9866656297272,-26.20194322813775,-179.5033499734553,1.750459510500103,0.0,39.80792862518403,-104.6644561560036,-1.069457088141608,EngineFailure,0.63,,,,None
2025-10-24_22:20:40,5.926631090822386,173.9866656546387,-26.20194322857986,-179.5033500298063,1.774199634961837,0.0,39.80792862518404,-104.6644561560036,FuelLeak,0.805,,,,None
2025-10-24_22:20:41,-1.069457092794422,5.926631113117082,173.9866656292628,-26.2019432656773,-179.5033499727909,-5.479497076073115,0.0,39.80792862518407,FuelLeak,0.66,,,,None
2025-10-24_22:20:42,-104.6644561560036,-1.069457088141608,5.926630857916574,173.9866656189778,-26.20194322459958,-179.5033499492728,-1.411455771007818,0.0,FuelLeak,0.605,,,,None
2025-10-24_22:20:44,39.80792862518408,-104.6644561560036,-1.069457090468015,5.926630864186959,173.9866656366121,-26.20194323175906,-179.5033499892197,-1.499409480577967,EngineFailure,0.48,,,,None
2025-10-24_22:20:45,39.80792862518409,-104.6644561560036,-1.069457097447237,5.926630927054726,173.9866656900942,-26.20194320880294,-179.5033501099338,-2.26644910467933,EngineFailure,0.48,,,,None
2025-10-24_22:20:46,39.80792862518405,-104.6644561560036,-1.069457092794422,5.926630831892433,173.986665652273,-26.20194320965137,-179.503350023896,-2.415498489011921,EngineFailure,0.48,,,,None
2025-10-24_22:20:47,0.0,39.80792862518404,-104.6644561560036,-1.069457092794422,5.926631028651331,173.986665633838,-26.20194321375401,-179.5033499823213,FuelLeak,0.67,,,,None
2025-10-24_22:20:48,1.422669691354039,0.0,39.80792862518404,-104.6644561560036,-1.069457092794422,5.926631035536457,173.9866656756339,-26.20194325086714,FuelLeak,0.775,,,,None
2025-10-24_22:20:49,-179.5033500771199,2.32045602511364,0.0,39.80792862518403,-104.6644561560036,-1.069457090468015,5.926631349998226,173.9866656772027,FuelLeak,0.685,,,,None
2025-10-24_22:20:50,-26.20194327303536,-179.5033500808798,-5.483706847248192,0.0,39.80792862518405,-104.6644561560036,-1.069457092794422,5.926631081601234,FuelLeak,0.615,,,,None
2025-10-24_22:20:51,173.9866656656766,-26.20194324130382,-179.5033500546086,2.703151434002537,0.0,39.80792862518405,-104.6644561560036,-1.069457090468015,EngineFailure,0.63,,,,None
2025-10-24_22:20:52,5.926631066355596,173.9866656653653,-26.201943241292,-179.5033500539429,2.142416653556635,0.0,39.80792862518407,-104.6644561560036,FuelLeak,0.805,,,,None
2025-10-24_22:20:54,-1.069457088141608,5.926631031151286,173.986665626318,-26.20194323716235,-179.5033499657083,2.106362109213494,0.0,39.80792862518407,FuelLeak,0.755,,,,None
2025-10-24_22:20:55,-104.6644561560036,-1.069457099773644,5.92663095004613,173.9866656865238,-26.20194322289009,-179.5033501017086,7.246048019140975,0.0,FuelLeak,0.605,,,,None
2025-10-24_22:20:56,39.80792862518406,-104.6644561560036,-1.069457085815201,5.926631249631114,173.9866656638782,-26.20194327830453,-179.503350051007,-6.411913780020141,EngineFailure,0.475,,,,None
2025-10-24_22:20:57,39.80792862518405,-104.6644561560036,-1.069457090468015,5.926631159591688,173.9866656674277,-26.20194325861577,-179.5033500589155,2.985077161860691,EngineFailure,0.48,,,,None
2025-10-24_22:20:58,39.80792862518408,-104.6644561560036,-1.069457090468015,5.926630909145198,173.9866656701611,-26.20194321717999,-179.5033500648065,1.622420159182654,EngineFailure,0.48,,,,None
2025-10-24_22:20:59,39.80792862518408,-104.6644561560036,-1.069457092794422,5.926631057831154,173.986665674012,-26.20194323978118,-179.5033500737321,1.89402155798347,EngineFailure,0.48,,,,None
2025-10-24_22:21:01,0.0,39.80792862518409,-104.6644561560037,-1.069457090468015,5.92663092344823,173.9866656540392,-26.20194320866629,-179.5033500283932,FuelLeak,0.67,,,,None
2025-10-24_22:21:02,-7.436739193164601,0.0,39.80792862518408,-104.6644561560036,-1.06945709512083,5.926631029757869,173.9866656598519,-26.20194319164136,FuelLeak,0.775,,,,None
2025-10-24_22:21:04,-179.5033500414349,-1.630834169310153,0.0,39.80792862518408,-104.6644561560037,-1.069457090468015,5.926630841728329,173.9866656767761,FuelLeak,0.685,,,,None
2025-10-24_22:21:05,-26.2019432140046,-179.5033500798949,1.229450141437925,0.0,39.80792862518408,-104.6644561560036,-1.069457090468015,5.926630906276396,FuelLeak,0.595,,,,None
2025-10-24_22:21:07,173.9866656925692,-26.20194321754265,-179.5033501150186,1.824550889764063,0.0,39.80792862518409,-104.6644561560037,-1.069457090468015,EngineFailure,0.63,,,,None
2025-10-24_22:21:08,5.926631096559992,173.986665656148,-26.20194323698065,-179.5033500329039,1.845577130331297,0.0,39.80792862518415,-104.6644561560037,FuelLeak,0.805,,,,None
2025-10-24_22:21:09,-1.069457088141608,5.926630835826792,173.9866656835504,-26.20194319534676,-179.5033500945355,-3.192643420830363,0.0,39.80792862518413,FuelLeak,0.66,,,,None
2025-10-24_22:21:10,-104.6644561560037,-1.069457090468015,5.926630927956349,173.9866656816883,-26.20194317542965,-179.5033500902181,-3.02775679330151,0.0,FuelLeak,0.605,,,,None
2025-10-24_22:21:12,39.8079286251841,-104.6644561560037,-1.069457088141608,5.92663106004423,173.9866656708353,-26.20194316608774,-179.5033500656651,6.567056610943615,EngineFailure,0.48,,,,None
2025-10-24_22:21:13,39.80792862518415,-104.6644561560037,-1.06945709512083,5.926630745664412,173.9866656621863,-26.20194319856622,-179.5033500464216,-3.706044088760098,EngineFailure,0.48,,,,None
2025-10-24_22:21:14,39.80792862518411,-104.6644561560037,-1.069457081162386,5.926631049470641,173.9866656531602,-26.20194323338455,-179.5033500263401,-6.646893823771034,EngineFailure,0.475,,,,None
2025-10-24_22:21:15,39.80792862518415,-104.6644561560037,-1.069457090468015,5.926630948406816,173.986665653358,-26.20194319645401,-179.5033500265405,1.668146420833615,EngineFailure,0.48,,,,None
2025-10-24_22:21:16,39.80792862518417,-104.6644561560037,-1.069457092794422,5.926631085125763,173.9866656841283,-26.2019431910109,-179.5033500960978,6.712925281374214,EngineFailure,0.48,,,,None
2025-10-24_22:21:18,0.0,39.80792862518414,-104.6644561560037,-1.069457088141608,5.926631109633536,173.9866656829722,-26.20194324521729,-179.5033500939581,FuelLeak,0.67,,,,None
2025-10-24_22:21:19,-7.961125410661827,0.0,39.80792862518414,-104.6644561560037,-1.069457085815201,5.926631066478545,173.9866656926643,-26.20194321872798,FuelLeak,0.775,,,,None
2025-10-24_22:21:20,-179.5033501156956,2.161477887299318,0.0,39.80792862518417,-104.6644561560037,-1.069457085815201,5.926631162050662,173.9866657127381,FuelLeak,0.685,,,,None
2025-10-24_22:21:21,-26.20194327179809,-179.5033501615271,-8.822494874034083,0.0,39.80792862518417,-104.6644561560037,-1.069457078835979,5.926630869678666,FuelLeak,0.615,,,,None
2025-10-24_22:21:22,173.9866657103967,-26.20194319289844,-179.5033501556703,1.553375577571798,0.0,39.80792862518421,-104.6644561560037,-1.069457085815201,EngineFailure,0.63,,,,None
2025-10-24_22:21:23,5.926630816523846,173.9866656870796,-26.20194319620218,-179.5033501030553,-7.13493921567541,0.0,39.80792862518418,-104.6644561560037,FuelLeak,0.8,,,,None
2025-10-24_22:21:25,-1.069457078835978,5.926630868654094,173.9866656826014,-26.20194318132897,-179.5033500922453,1.436182287398449,0.0,39.80792862518416,FuelLeak,0.755,,,,None
2025-10-24_22:21:26,-104.6644561560037,-1.069457078835978,5.926631409300477,173.9866656891732,-26.20194324158889,-179.5033501076096,-2.198582370160389,0.0,FuelLeak,0.605,,,,None
2025-10-24_22:21:27,39.80792862518417,-104.6644561560037,-1.069457078835978,5.926631345408141,173.9866657083336,-26.20194323596364,-179.5033501509287,-1.575379611024528,EngineFailure,0.48,,,,None
2025-10-24_22:21:28,39.80792862518417,-104.6644561560037,-1.069457078835978,5.926631193115698,173.9866657056384,-26.2019432606973,-179.5033501450785,1.25916235794321,EngineFailure,0.48,,,,None
2025-10-24_22:21:29,39.80792862518422,-104.6644561560037,-1.069457081162386,5.926631302335117,173.9866657022916,-26.20194322319258,-179.5033501372558,-7.26080824882369,EngineFailure,0.475,,,,None
2025-10-24_22:21:30,39.80792862518422,-104.6644561560037,-1.069457092794422,5.926631056683632,173.9866657480877,-26.20194320973357,-179.5033501588739,-2.513921333770367,EngineFailure,0.48,,,,None
2025-10-24_22:21:31,39.80792862518423,-104.6644561560037,-1.069457078835979,5.926630820499187,173.9866657058815,-26.20194322520759,-179.50335014547,2.382080996916369,EngineFailure,0.48,,,,None
2025-10-24_22:21:32,39.80792862518423,-104.6644561560037,-1.069457078835979,5.926630862998453,173.9866657165181,-26.20194322615025,-179.5033501695526,2.131285921596099,EngineFailure,0.48,,,,None
2025-10-24_22:21:33,0.0,39.80792862518424,-104.6644561560037,-1.069457088141608,5.926630989471679,173.9866657005051,-26.20194316379099,-179.503350132928,FuelLeak,0.67,,,,None
2025-10-24_22:21:35,-3.318339441598045,0.0,39.80792862518425,-104.6644561560037,-1.0694570858152,5.926630914391009,173.9866657277903,-26.20194322434176,FuelLeak,0.775,,,,None
2025-10-24_22:21:36,-179.503350195121,2.515487404103341,0.0,39.80792862518427,-104.6644561560037,-1.069457076509571,5.926631092051874,173.9866656899601,FuelLeak,0.685,,,,None
2025-10-24_22:21:37,-26.20194321602843,-179.503350109602,2.823328744961724,0.0,39.80792862518424,-104.6644561560037,-1.069457078835979,5.926631355489934,FuelLeak,0.595,,,,None
2025-10-24_22:21:38,173.9866657413108,-26.20194323696517,-179.5033502258636,-3.017647479005539,0.0,39.80792862518426,-104.6644561560038,-1.069457078835979,EngineFailure,0.63,,,,None
2025-10-24_22:21:39,5.926630874268751,173.9866657141607,-26.20194317068571,-179.5033501640268,-2.244481507078328,0.0,39.80792862518429,-104.6644561560038,FuelLeak,0.805,,,,None
2025-10-24_22:21:40,-1.0694570858152,5.926631120903833,173.9866657320068,-26.20194320273723,-179.5033502046597,1.700607724212272,0.0,39.8079286251843,FuelLeak,0.755,,,,None
2025-10-24_22:21:41,-104.6644561560038,-1.069457081162386,5.926631042175686,173.9866657397995,-26.20194321687904,-179.5033502224218,2.65256929979366,0.0,FuelLeak,0.605,,,,None
2025-10-24_22:21:43,39.8079286251843,-104.6644561560038,-1.069457081162386,5.926630904555114,173.9866657510385,-26.20194317503005,-179.5033502475245,5.17526848688826,EngineFailure,0.48,,,,None
2025-10-24_22:21:44,39.80792862518429,-104.6644561560038,-1.069457076509571,5.926630974103093,173.9866657514714,-26.20194314318886,-179.5033502476886,6.498686804335347,EngineFailure,0.48,,,,None
2025-10-24_22:21:45,39.80792862518426,-104.6644561560038,-1.069457074183164,5.926631131272506,173.9866657138053,-26.20194320593009,-179.5033501630985,-5.025815490696506,EngineFailure,0.48,,,,None
2025-10-24_22:21:46,39.80792862518428,-104.6644561560038,-1.069457081162386,5.926630941849552,173.9866657200535,-26.20194315998388,-179.5033501768934,-5.793697909934385,EngineFailure,0.48,,,,None
2025-10-24_22:21:47,39.8079286251843,-104.6644561560038,-1.069457081162386,5.926630910702548,173.9866657267586,-26.2019431617708,-179.5033501920955,-7.499136716624869,EngineFailure,0.475,,,,None
2025-10-24_22:21:48,39.80792862518425,-104.6644561560038,-1.069457078835979,5.926631074429228,173.9866657382446,-26.20194317894138,-179.5033502182367,1.737913962762131,EngineFailure,0.48,,,,None
2025-10-24_22:21:49,39.80792862518429,-104.6644561560038,-1.0694570858152,5.926631002217361,173.9866657158596,-26.20194313407799,-179.5033501673298,-2.836279882703146,EngineFailure,0.48,,,,None
2025-10-24_22:21:50,0.0,39.80792862518426,-104.6644561560038,-1.069457085815201,5.926630893694645,173.9866657249975,-26.20194318419558,-179.5033501884157,FuelLeak,0.67,,,,None
2025-10-24_22:21:52,6.812498444370748,0.0,39.80792862518426,-104.6644561560038,-1.069457088141608,5.926631057913119,173.9866657169191,-26.20194316205925,FuelLeak,0.775,,,,None
2025-10-24_22:21:53,-179.5033501700183,-3.840986801357644,0.0,39.80792862518426,-104.6644561560038,-1.069457076509571,5.926630859883754,173.9866657366844,FuelLeak,0.685,,,,None
2025-10-24_22:21:54,-26.20194317382986,-179.5033502148258,1.612570110872333,0.0,39.80792862518422,-104.6644561560038,-1.069457088141608,5.926631070945682,FuelLeak,0.595,,,,None
2025-10-24_22:21:55,173.9866657332376,-26.20194314762572,-179.5033502068675,-1.322280434706193,0.0,39.80792862518423,-104.6644561560038,-1.069457071856757,EngineFailure,0.63,,,,None
2025-10-24_22:21:56,5.926631183197837,173.9866657345221,-26.2019432271193,-179.5033502104349,3.175333728352031,0.0,39.80792862518425,-104.6644561560038,FuelLeak,0.805,,,,None
2025-10-24_22:21:57,-1.069457076509571,5.926630946439637,173.9866657486803,-26.20194315895292,-179.5033502419311,-4.303534665323912,0.0,39.80792862518428,FuelLeak,0.66,,,,None
2025-10-24_22:21:59,-104.6644561560038,-1.069457081162386,5.926631239713251,173.9866657392008,-26.20194324257977,-179.5033502212077,-2.293555484199057,0.0,FuelLeak,0.605,,,,None
2025-10-24_22:22:00,39.80792862518426,-104.6644561560038,-1.069457076509571,5.926631198361509,173.9866657525205,-26.201943254548,-179.5033502514499,-8.868374450081099,EngineFailure,0.475,,,,None
2025-10-24_22:22:01,39.80792862518423,-104.6644561560038,-1.069457085815201,5.92663103090539,173.9866657457603,-26.20194317429581,-179.503350235582,1.189907751590902,EngineFailure,0.48,,,,None
2025-10-24_22:22:02,39.8079286251842,-104.6644561560037,-1.069457078835979,5.926631429136197,173.9866657449591,-26.20194324053195,-179.503350234344,-6.008024427104544,EngineFailure,0.48,,,,None
2025-10-24_22:22:03,39.80792862518421,-104.6644561560038,-1.069457085815201,5.926630903571525,173.9866657550376,-26.20194318394471,-179.5033502560794,3.986224640147228,EngineFailure,0.48,,,,None
2025-10-24_22:22:05,39.80792862518423,-104.6644561560038,-1.069457085815201,5.926630974348989,173.9866657314424,-26.20194314339247,-179.5033502024918,-2.356037745255914,EngineFailure,0.48,,,,None
2025-10-24_22:22:06,39.80792862518427,-104.6644561560038,-1.069457088141608,5.926630943283953,173.9866657281243,-26.20194315296525,-179.503350195109,-7.578400907726706,EngineFailure,0.475,,,,None
2025-10-24_22:22:07,39.78479589889574,-104.5294185181036,-26.12783122155462,66.31760833793926,174.0965795215587,-26.22121999402009,-179.5564761624408,112.970082714021,Normal,0.43,,,,None
2025-10-24_22:22:08,39.78477042713219,-104.5294127813324,58.07348808714656,19.4071347887375,182.8212925661678,0.8872242382422697,170.8316528526417,33.20823298593879,FuelLeak,0.605,,,,None
2025-10-24_22:22:09,0.0,39.78473759337789,-104.5294032730083,72.14120720795269,4.512417289548656,192.5068488374035,19.4078772426159,160.1702032932084,FuelLeak,0.81,,,,None
2025-10-24_22:22:10,-7.670369715564141,0.0,39.78471153136421,-104.5293947646283,49.09713366652918,22.82075104911809,206.1231512800857,16.01170166702635,FuelLeak,0.7,,,,None
2025-10-24_22:22:11,155.5202526756367,-39.05326082330741,0.0,39.78469629821639,-104.5293786349709,-0.7802769130822975,5.668761768181006,223.9878749296984,FuelLeak,0.685,,,,None
2025-10-24_22:22:12,-24.69464408583325,-170.4879069076152,0.7276534414602953,0.0,39.78469588767203,-104.5293783120989,-1.074723947765794,5.919653092282778,FuelLeak,0.595,,,,None
2025-10-24_22:22:13,228.0289918677402,-26.36176811742992,-179.7669747939049,-0.0003014034658250442,0.0,39.78469588446636,-104.5293783092507,-1.074935389989857,EngineFailure,0.63,,,,None
2025-10-24_22:22:15,5.926098233912399,228.0541331141114,-26.36440037488152,-179.8105629741762,-0.0003736620852844909,0.0,39.78469588338157,-104.5293783076957,FuelLeak,0.805,,,,None
2025-10-24_22:22:16,-1.074976071819907,5.926079716842162,228.0613985928054,-26.36479119224677,-179.8129641262672,-0.0003755701760660474,0.0,39.78469588222349,FuelLeak,0.755,,,,None
2025-10-24_22:22:17,-104.5293783060291,-1.075017167749899,5.926079212951519,228.0692176993346,-26.36522289483454,-179.8155818520561,-0.0003749568813386382,0.0,FuelLeak,0.605,,,,None
2025-10-24_22:22:18,39.78469588112597,-104.5293783044487,-1.075053894692821,5.92607877439366,228.0766456696737,-26.36564685881979,-179.8180816933747,-0.0003733029478955939,EngineFailure,0.48,,,,None
2025-10-24_22:22:19,39.78469588017893,-104.5293783030099,-1.075093748322986,5.926899085045639,228.0829292202577,-26.36622292927277,-179.8201419210336,0.0003224672409722247,EngineFailure,0.48,,,,None
2025-10-24_22:22:21,39.78469587896067,-104.5293783013299,-1.075119755195381,5.926078811035785,228.0913388733265,-26.3665388090127,-179.8230306948387,-0.0003709635414890255,EngineFailure,0.48,,,,None
2025-10-24_22:22:22,39.78469587786264,-104.5293782997472,-1.075149921678479,5.92607837354355,228.0988072229488,-26.3670126371435,-179.8255491751564,-0.0003690643954858523,EngineFailure,0.48,,,,None
2025-10-24_22:22:23,39.78469587694731,-104.5293782984277,-1.075173520722552,5.92607839879137,228.1050435025608,-26.3674244265471,-179.827655377201,-0.0003686190780037309,EngineFailure,0.48,,,,None
2025-10-24_22:22:24,39.78469587578586,-104.529378296679,-1.075211020031661,5.926897515225538,228.1128303080896,-26.36816089126339,-179.8302317990898,0.0003329097377098639,EngineFailure,0.48,,,,None
2025-10-24_22:22:25,39.78469587492221,-104.5293782955022,-1.075219281092896,5.926095996823305,228.1189009937069,-26.36838608365741,-179.8323366001311,-0.0003617921762969474,EngineFailure,0.48,,,,None
2025-10-24_22:22:26,39.78469587395432,-104.5293782940377,-1.0752481145464,5.926897171066625,228.1253525938253,-26.3690569938868,-179.8344726620014,0.0003355267639103452,EngineFailure,0.48,,,,None
2025-10-24_22:22:27,0.0,39.78469587285521,-104.529378292452,-1.075267325992155,5.926896329438581,228.1328863822736,-26.36962160486196,-179.8370264035339,FuelLeak,0.67,,,,None
2025-10-24_22:22:28,0.0003371448100198806,0.0,39.78469587175552,-104.5293782908659,-1.07528398537251,5.926896461069755,228.1404330574074,-26.37020816060326,FuelLeak,0.775,,,,None
2025-10-24_22:22:30,-179.839589334437,0.0003410330246051459,0.0,39.78469587070753,-104.5293782894225,-1.075286423444039,5.926095267384772,228.1478123654804,FuelLeak,0.685,,,,None
2025-10-24_22:22:31,-26.37059950936492,-179.8421469573191,-0.0003534714921811619,0.0,39.78469586982087,-104.5293782881436,-1.075295333572042,5.926095078682448,FuelLeak,0.595,,,,None
2025-10-24_22:22:32,228.1539205199445,-26.37110604689951,-179.8442265847906,-0.0003540875627311478,0.0,39.78469586865511,-104.5293782863882,-1.07531472647732,EngineFailure,0.63,,,,None
2025-10-24_22:22:33,5.926823368393864,228.1618047997901,-26.37198561065793,-179.8468631755833,0.0003490136735989452,0.0,39.78469586760004,-104.529378284945,FuelLeak,0.805,,,,None
2025-10-24_22:22:34,-1.075309405990866,5.926076373391274,228.169216854881,-26.37243634536936,-179.8494357871121,-0.0003503718353511611,0.0,39.78469586645306,FuelLeak,0.755,,,,None
2025-10-24_22:22:36,-104.5293782832113,-1.075322019754328,5.926820150889096,228.1770254018754,-26.373356241738,-179.8520462360234,0.0003551786985183036,0.0,FuelLeak,0.605,,,,None
2025-10-24_22:22:37,39.78469586535125,-104.5293782816226,-1.075320963566756,5.926821126660682,228.1846572189897,-26.37408159532321,-179.8546478782674,0.0003583854455790058,EngineFailure,0.48,,,,None
2025-10-24_22:22:38,0.0,39.78469586434499,-104.5293782802453,-1.075306386318022,5.92609452040388,228.1917983772918,-26.3745769188844,-179.8571328581231,FuelLeak,0.67,,,,None
2025-10-24_22:22:39,-0.0003401164081386167,39.78469586342624,-104.529378278921,-1.075299783982867,5.926094360843011,228.1981817237762,-26.37522183216128,-179.8593104737259,FuelLeak,0.67,,,,None
2025-10-24_22:22:40,-0.000339073275527496,39.78469586205675,-104.52937827688,-1.075297794907197,5.92689449860928,228.2075283306592,-26.37640305727964,-179.862449375762,FuelLeak,0.67,,,,None
2025-10-24_22:22:42,0.0003688434640706287,39.78469586097498,-104.5293782753887,-1.075271692652089,5.926094119800757,228.2152362995607,-26.37703488651246,-179.8651321466549,FuelLeak,0.67,,,,None
2025-10-24_22:22:43,-0.0003322391711373607,39.78469585981902,-104.5293782736565,-1.075262687141387,5.926895100170469,228.2231236042993,-26.37812129665995,-179.8677754281928,FuelLeak,0.67,,,,None
2025-10-24_22:22:44,0.0003766541201904836,39.78469585892956,-104.5293782723758,-1.075244606327947,5.926895039559462,228.229333702307,-26.37883822667735,-179.8698974232043,FuelLeak,0.67,,,,None
2025-10-24_22:22:45,0.00037677966813105,39.7846958578122,-104.5293782707614,-1.075218134174569,5.92681921384496,228.2371538842463,-26.37976846689778,-179.8725661119448,FuelLeak,0.67,,,,None
2025-10-24_22:22:46,0.0003813985276686631,39.78469585687375,-104.5293782694175,-1.075192746125557,5.926895228851033,228.243701398038,-26.38056744242266,-179.8747971544163,FuelLeak,0.67,,,,None
2025-10-24_22:22:48,0.0003846625571564404,39.78469585606654,-104.5293782683233,-1.075156644985245,5.926094082666886,228.2495237487202,-26.38109486847064,-179.8768305080812,FuelLeak,0.67,,,,None
2025-10-24_22:22:49,-0.0003185171406009521,0.0,39.7846958549416,-104.5293782667114,-1.07511895491085,5.926074941560537,228.2573769601956,-26.38210985942131,FuelLeak,0.775,,,,None
2025-10-24_22:22:50,-179.879505329695,-0.0003193883664293805,0.0,39.78469585377399,-104.5293782650342,-1.075075230143977,5.9260749787765,228.2655675590293,FuelLeak,0.685,,,,None
2025-10-24_22:22:52,-26.3832033912391,-179.8822926716186,-0.0003173961131583895,0.0,39.78469585281864,-104.5293782635915,-1.07504760409413,5.926894268377588,FuelLeak,0.595,,,,None
2025-10-24_22:22:53,228.2721373615946,-26.38431016261516,-179.8844760394452,0.0004002415924117106,0.0,39.78469585182128,-104.5293782621546,-1.075002367164542,EngineFailure,0.63,,,,None
2025-10-24_22:22:55,5.926817332051697,228.2791729880281,-26.38530408257309,-179.8868764976849,0.0004028426636130872,0.0,39.78469585044984,-104.5293782601949,FuelLeak,0.805,,,,None
2025-10-24_22:22:56,-1.074934394286757,5.926893111071838,228.2888064562398,-26.3867087333918,-179.8901410588433,0.0004092104111796412,0.0,39.78469584939451,FuelLeak,0.755,,,,None
2025-10-24_22:22:58,-104.5293782587493,-1.074864171776136,5.926094743698919,228.2964155855433,-26.38765113543516,-179.892764509611,-0.0002978085999280478,0.0,FuelLeak,0.605,,,,None
2025-10-24_22:22:59,39.7846958482202,-104.5293782569967,-1.074807607584523,5.926821908384338,228.3045365450711,-26.38911874892665,-179.8954645833124,0.0004172849984713623,EngineFailure,0.48,,,,None
2025-10-24_22:23:00,0.0,39.78469584709355,-104.5293782553911,-1.074736445206604,5.926894504264669,228.3124740215553,-26.39038766842863,-179.898143752331,FuelLeak,0.67,,,,None
2025-10-24_22:23:01,0.0004230151481150637,39.78469584620199,-104.5293782541884,-1.074663075071121,5.926074975825454,228.3189155953558,-26.39124039237803,-179.9003664713604,FuelLeak,0.67,,,,None
2025-10-24_22:23:03,-0.0002902868670765936,0.0,39.78469584526177,-104.5293782527685,-1.074608697699464,5.926820243630435,228.3254272622865,-26.39254610779996,FuelLeak,0.775,,,,None
2025-10-24_22:23:04,-179.9025087585028,0.0004293554534164155,0.0,39.78469584435206,-104.529378251547,-1.074527175843689,5.92607590233072,228.3319855926668,FuelLeak,0.685,,,,None
2025-10-24_22:23:05,-26.39346988792488,-179.9047638965317,-0.0002834822389228637,0.0,39.78469584267083,-104.5293782490728,-1.074403529787149,5.926821455988679,FuelLeak,0.595,,,,None
2025-10-24_22:23:06,228.3437435297936,-26.39576827452223,-179.9086514987403,0.0004408704168493772,0.0,39.78469584157535,-104.5293782475888,-1.074295237998318,EngineFailure,0.63,,,,None
2025-10-24_22:23:08,5.926076329904348,228.351626797276,-26.3970123399789,-179.9113336431867,-0.0002733697405322483,0.0,39.78469584066855,-104.5293782462933,FuelLeak,0.805,,,,None
2025-10-24_22:23:09,-1.074211666580449,5.926096295738558,228.3580782350487,-26.39823163637247,-179.9134789901624,-0.0002657310309293989,0.0,39.78469583964944,FuelLeak,0.755,,,,None
2025-10-24_22:23:10,-104.529378244844,-1.074113748227918,5.926096490465874,228.3652994780487,-26.39962349528103,-179.9158759741941,-0.0002616732417344792,0.0,FuelLeak,0.605,,,,None
2025-10-24_22:23:11,39.78469583820657,-104.5293782427286,-1.073981254856248,5.926896376566804,228.3753438111897,-26.40182423544785,-179.9191415622195,0.0004614832644274167,EngineFailure,0.48,,,,None
2025-10-24_22:23:12,0.0,39.78469583734363,-104.5293782415742,-1.073875317388474,5.926077040573289,228.3816096862066,-26.40289681024199,-179.9212614101876,FuelLeak,0.67,,,,None
2025-10-24_22:23:13,-0.0002571664329430787,0.0,39.78469583561009,-104.5293782390461,-1.07369368570743,5.926895924873508,228.3937589925752,-26.40565266354827,FuelLeak,0.775,,,,None
2025-10-24_22:23:15,-179.9251928868505,0.0004728446072094241,0.0,39.78469583454953,-104.52937823761,-1.073552849850349,5.926098040004873,228.4014692039174,FuelLeak,0.685,,,,None
2025-10-24_22:23:16,-26.40711222023786,-179.9277608426439,-0.0002414391743053301,0.0,39.78469583378813,-104.5293782365368,-1.073459316769737,5.926078067454718,FuelLeak,0.595,,,,None
2025-10-24_22:23:17,228.4068415894571,-26.40829536447915,-179.9295055946641,-0.0002440960945744102,0.0,39.7846958321643,-104.5293782341644,-1.073263731316352,EngineFailure,0.63,,,,None
2025-10-24_22:23:18,5.926823911153727,228.418238981494,-26.41107518317752,-179.93314006137,0.0004873119564434017,0.0,39.78469583065282,-104.5293782321005,FuelLeak,0.805,,,,None
2025-10-24_22:23:19,-1.0730432463589,5.926100296684775,228.4291393895221,-26.41340770012063,-179.9366866083923,-0.0002234381008547863,0.0,39.78469582989106,FuelLeak,0.755,,,,None
2025-10-24_22:23:21,-104.5293782310296,-1.072936085202527,5.926080133349103,228.4345165807211,-26.41468520486087,-179.9384041810542,-0.0002278368986724011,0.0,FuelLeak,0.605,,,,None
2025-10-24_22:23:22,39.78469582803551,-104.5293782284112,-1.072663463200692,5.926080922261204,228.4476985264353,-26.41789231674713,-179.942585746327,-0.0002177346569937343,EngineFailure,0.48,,,,None
2025-10-24_22:23:23,0.0,39.77634913818666,-104.5115664664235,12.25729122013389,10.60226440291703,228.8362367428859,-22.85409364323547,-172.6809447022599,FuelLeak,0.67,,,,None
2025-10-24_22:23:24,16.19957455132769,39.77634122406732,-104.5115667688668,11.92736263374135,10.70583033827332,232.3368835235248,-16.24395146336889,-161.8856703933273,FuelLeak,0.67,,,,None
2025-10-24_22:23:25,-16.63373801760433,0.0,39.77633594554773,-104.5115660637265,-0.483537197483583,5.915464778750136,240.5186253442583,-26.39608310939168,FuelLeak,0.775,,,,None
2025-10-24_22:23:26,-178.628921475477,-0.006199640736233671,0.0,39.77633594275894,-104.5115660589251,-0.4866035944769453,5.927391053009469,240.5367890871725,FuelLeak,0.685,,,,None
2025-10-24_22:23:27,-26.41768087737424,-178.6539956416458,-0.002343589879962641,0.0,39.77633594248695,-104.5115660580988,-0.4879691767955061,5.925942432846325,FuelLeak,0.595,,,,None
2025-10-24_22:23:28,240.5348438728249,-26.41944790925825,-178.6331272293481,-0.000352892800960296,0.0,39.77633594162744,-104.5115660568665,-0.4888276218555322,EngineFailure,0.63,,,,None
